city,lat,lng,country,population
'Ataq,14.55,46.8,Yemen,37315
's-Hertogenbosch,51.6833,5.3167,Netherlands,134520
Aalborg,57.0337,9.9166,Denmark,122219
Aba,5.1004,7.35,Nigeria,897560
Abadan,30.3307,48.2797,Iran,370180
Abaetetuba,-1.7245,-48.8849,Brazil,79420
Abakan,53.7037,91.445,Russia,167289
Abancay,-13.6396,-72.89,Peru,55111
Abbotsford,49.0504,-122.3,Canada,151683
Abbottabad,34.1495,73.1995,Pakistan,1183647
Abéché,13.84,20.83,Chad,158317
Abengourou,6.7304,-3.49,Côte D’Ivoire,104020
Abeokuta,7.1604,3.35,Nigeria,593100
Aberdeen,57.1704,-2.08,United Kingdom,189364
Abha,18.2301,42.5001,Saudi Arabia,210886
Abidjan,5.32,-4.04,Côte D’Ivoire,3802000
Abilene,32.4543,-99.7384,United States,114964
Abohar,30.1204,74.29,India,130603
Aboisso,5.4667,-3.2,Côte D’Ivoire,37654
Abomey,7.1904,1.99,Benin,82154
Abu Dhabi,24.4667,54.3666,United Arab Emirates,603492
Abu Kamal,34.4504,40.9186,Syria,80808
Abuja,9.0833,7.5333,Nigeria,1576000
Acapulco,16.85,-99.916,Mexico,715584
Acarigua,9.5804,-69.2,Venezuela,260921
Accra,5.55,-0.2167,Ghana,2121000
Achinsk,56.27,90.5,Russia,117634
Açu,-5.5796,-36.9101,Brazil,36125
Ad Damazīn,11.7704,34.35,Sudan,186051
Ad Damman,26.4282,50.0997,Saudi Arabia,2054710
Ad Diwaniyah,31.9889,44.924,Iraq,358408
Ad Nabk,34.017,36.7333,Syria,50178
Adana,36.995,35.32,Turkey,1293000
Adapazarı,40.8,30.415,Turkey,260109
Addis Ababa,9.0333,38.7,Ethiopia,3100000
Addison,41.9314,-88.0085,United States,36820
Adelaide,-34.935,138.6,Australia,1145000
Adelanto,34.5815,-117.4395,United States,34066
Aden,12.7797,45.0095,Yemen,1000000
Adigrat,14.2804,39.47,Ethiopia,104021
Adıyaman,37.7704,38.2799,Turkey,223744
Adjumani,3.3614,31.8097,Uganda,34700
Ado Ekiti,7.6304,5.22,Nigeria,446749
Adrar,27.87,-0.29,Algeria,56910
Adrian,41.8994,-84.0446,United States,43877
Afyon,38.7504,30.55,Turkey,156992
Agadez,16.9959,7.9828,Niger,117770
Agadir,30.44,-9.62,Morocco,825467
Agartala,23.8354,91.28,India,203264
Agboville,5.9403,-4.28,Côte D’Ivoire,81770
Agen,44.2004,0.6333,France,58223
Agra,27.1704,78.015,India,1592000
Agrinio,38.6218,21.4077,Greece,75233
Ağrı,39.7198,43.0513,Turkey,87854
Agua Prieta,31.3223,-109.563,Mexico,86083
Aguascalientes,21.8795,-102.2904,Mexico,869000
Ahar,38.4829,47.0629,Iran,103639
Ahmedabad,23.0301,72.58,India,5375000
Ahmednagar,19.1104,74.75,India,391760
Ahuachapán,13.919,-89.845,El Salvador,34102
Ahvaz,31.28,48.72,Iran,996000
Aiken,33.5303,-81.727,United States,30721
Aix-en-Provence,43.52,5.45,France,146821
Aizawl,23.7104,92.72,India,283021
Ajaccio,41.9271,8.7283,France,54364
Ajdabiya,30.77,20.22,Libya,143833
Ajmer,26.45,74.64,India,589985
Aketi,2.7405,23.78,Congo (Kinshasa),58601
Akhtubinsk,48.2787,46.1687,Russia,44551
Akita,39.71,140.09,Japan,320069
Akola,20.71,77.01,India,503502
Akron,41.0802,-81.5219,United States,565920
Aksu,41.15,80.25,China,340020
Aksum,14.1304,38.72,Ethiopia,47487
Akure,7.2504,5.2,Nigeria,420594
Al Ahmadi,29.0769,48.0838,Kuwait,68763
Al Amarah,31.8416,47.1512,Iraq,345007
Al Aqabah,29.527,35.0777,Jordan,95048
Al Ayn,24.2305,55.74,United Arab Emirates,408733
Al Bayda,13.979,45.574,Yemen,37821
Al Fallujah,33.3477,43.7773,Iraq,231819
Al Fujayrah,25.1234,56.3375,United Arab Emirates,94163
Al Hasakah,36.4833,40.75,Syria,128100
Al Hillah,23.4895,46.7564,Saudi Arabia,594605
Al Hillah,32.4721,44.4217,Iraq,594605
Al Hudaydah,14.7979,42.953,Yemen,780000
Al Hufuf,25.3487,49.5856,Saudi Arabia,637389
Al Jahra,29.3375,47.6581,Kuwait,194193
Al Jubayl,27.0046,49.646,Saudi Arabia,237274
Al Karak,31.1851,35.7047,Jordan,80062
Al Kharj,24.1556,47.312,Saudi Arabia,298428
Al Khums,32.6604,14.26,Libya,201943
Al Kut,32.4907,45.8304,Iraq,321521
Al Ladhiqiyah,35.54,35.78,Syria,539147
Al Mafraq,32.2833,36.2333,Jordan,57118
Al Marj,32.5005,20.83,Libya,169540
Al Mubarraz,25.4291,49.5659,Saudi Arabia,298562
Al Mukalla,14.5412,49.1259,Yemen,258132
Al Musayyib,32.7786,44.29,Iraq,76454
Al Qamishli,37.03,41.23,Syria,104107
Al Wajh,26.2324,36.4636,Saudi Arabia,43237
Al-Qatif,26.5196,50.0115,Saudi Arabia,368892
Alabaster,33.2197,-86.8225,United States,33202
Alagoinhas,-12.14,-38.43,Brazil,124070
Alajuela,10.02,-84.23,Costa Rica,387743
Alameda,37.767,-122.2673,United States,79177
Alamogordo,32.8834,-105.9627,United States,32745
Alapayevsk,57.8465,61.6915,Russia,44000
Alappuzha,9.5004,76.37,India,176783
Alatyr,54.8504,46.6,Russia,46427
Alayat Samail,23.3032,57.9782,Oman,47718
Alba Lulia,46.077,23.58,Romania,66085
Albacete,39.0003,-1.87,Spain,158094
Albany,42.6664,-73.7987,United States,597270
Albany,31.5776,-84.1762,United States,90515
Albany,44.6274,-123.0966,United States,60795
Albertville,34.2631,-86.2106,United States,37220
Albuquerque,35.1053,-106.6464,United States,758523
Albury,-36.06,146.92,Australia,104258
Alekseyevka,50.6535,38.6931,Russia,39848
Aleksin,54.5143,37.0944,Russia,66885
Aleppo,36.23,37.17,Syria,2738000
Ålesund,62.5454,6.388,Norway,47772
Alexandria,43.9016,25.2867,Romania,49346
Alexandria,31.2,29.95,Egypt,4165000
Alexandria,38.8185,-77.0861,United States,160035
Alexandria,31.2923,-92.4702,United States,82131
Alexandroupoli,40.8486,25.8744,Greece,52979
Algeciras,36.1267,-5.4665,Spain,111027
Algiers,36.7631,3.0506,Algeria,3354000
Algonquin,42.1629,-88.3158,United States,31017
Alhambra,34.084,-118.1355,United States,85396
Ali Bayramli,39.9323,48.9203,Azerbaijan,70684
Ali Sabih,11.1562,42.7125,Djibouti,40074
Alicante,38.3512,-0.4836,Spain,315863
Aligarh,27.8922,78.0618,India,805000
Alipur Duar,26.4837,89.5667,India,127342
Aliso Viejo,33.5792,-117.729,United States,51671
Aliwal North,-30.6896,26.71,South Africa,44436
Allahabad,25.455,81.84,India,1201000
Allanmyo,19.3783,95.2279,Burma,57897
Allen,33.1088,-96.6735,United States,100685
Allentown,40.5961,-75.4756,United States,682899
Alliance,40.9107,-81.1189,United States,31758
Almaty,43.325,76.915,Kazakhstan,1209000
Almería,36.8303,-2.43,Spain,179405
Almetyevsk,54.9004,52.3199,Russia,140437
Alor Setar,6.1133,100.3729,Malaysia,336475
Alpharetta,34.0704,-84.2739,United States,65799
Alta Floresta,-9.9,-55.91,Brazil,40466
Alta Gracia,-31.66,-64.43,Argentina,40384
Altagracia de Orituco,9.8504,-66.38,Venezuela,40052
Altamira,-3.1996,-52.21,Brazil,70888
Altamonte Springs,28.6615,-81.3952,United States,44277
Altay,47.8666,88.1166,China,142000
Alton,38.9033,-90.1523,United States,80462
Altoona,40.5082,-78.4007,United States,76096
Alwar,27.5454,76.6049,India,283228
Alxa Zuoqi,38.839,105.6686,China,56387
Am Timan,11.0333,20.2833,Chad,30443
Amahai,-3.3281,128.9405,Indonesia,47653
Amarillo,35.1988,-101.8308,United States,206072
Amasya,40.6537,35.833,Turkey,82896
Ambala,30.32,76.82,India,146787
Ambanja,-13.6829,48.45,Madagascar,30621
Ambato,-1.2696,-78.62,Ecuador,281425
Ambatondrazaka,-17.8329,48.4167,Madagascar,43134
Ambon,-3.7167,128.2,Indonesia,355596
Americana,-22.7499,-47.33,Brazil,479472
Ames,42.0261,-93.6279,United States,68156
Amiens,49.9004,2.3,France,143086
Amman,31.95,35.9333,Jordan,1060000
Amol,36.4713,52.3633,Iran,221650
Amravati,20.95,77.77,India,734451
Amritsar,31.64,74.87,India,1212000
Amsterdam,52.35,4.9166,Netherlands,1031000
Amursk,50.2228,136.8974,Russia,46993
An Najaf,32.0003,44.3354,Iraq,665552
An Nasiriyah,31.0429,46.2676,Iraq,451547
Anaco,9.44,-64.46,Venezuela,117596
Anaheim,33.839,-117.8572,United States,352497
Anápolis,-16.3196,-48.96,Brazil,319587
Anchorage,61.1508,-149.1091,United States,253421
Ancona,43.6004,13.4999,Italy,100507
Anda,46.4,125.32,China,181533
Anderson,40.0874,-85.692,United States,86481
Anderson,34.5212,-82.6479,United States,77426
Andijon,40.79,72.34,Uzbekistan,650000
Andkhvoy,36.9317,65.1015,Afghanistan,71730
Andong,36.5659,128.725,"Korea, South",129319
Andorra,42.5,1.5165,Andorra,53998
Andover,45.2571,-93.3265,United States,32902
Andradina,-20.9096,-51.3799,Brazil,52406
Angarsk,52.56,103.92,Russia,243158
Angeles,15.1451,120.5451,Philippines,314493
Angers,47.48,-0.53,France,188380
Angoche,-16.23,39.91,Mozambique,57835
Angol,-37.79,-72.71,Chile,44856
Angren,41.0304,70.1549,Uzbekistan,202070
Ankang,32.68,109.02,China,1100000
Ankara,39.9272,32.8644,Turkey,3716000
Ankeny,41.728,-93.6031,United States,62416
Anlu,31.27,113.67,China,71198
Ann Arbor,42.2755,-83.7312,United States,326288
Annaba,36.92,7.76,Algeria,503524
Annapolis,38.9706,-76.5047,United States,39321
Annecy,45.9,6.1167,France,105749
Anniston,33.6713,-85.8136,United States,75169
Anqing,30.5,117.05,China,580497
Ansan,37.3481,126.8595,"Korea, South",739493
Anshan,41.115,122.94,China,1639000
Anshun,26.2504,105.93,China,849000
Antalaha,-14.8833,50.2833,Madagascar,47224
Antalya,36.89,30.7,Turkey,783000
Antananarivo,-18.9166,47.5166,Madagascar,1697000
Antigua Guatemala,14.5667,-90.7333,Guatemala,39368
Antioch,37.9789,-121.7957,United States,302885
Antofagasta,-23.65,-70.4,Chile,309832
Antsirabe,-19.85,47.0333,Madagascar,307921
Antsiranana,-12.2765,49.3115,Madagascar,82937
Antwerpen,51.2204,4.415,Belgium,920000
Anuradhapura,8.35,80.3833,Sri Lanka,118302
Anyang,36.08,114.35,China,887000
Anzhero Sudzhensk,56.08,86.04,Russia,83692
Aomori,40.825,140.71,Japan,298394
Aosta,45.737,7.315,Italy,34062
Apache Junction,33.3985,-111.5351,United States,40538
Apatity,67.5731,33.393,Russia,66907
Apatzingán,19.08,-102.35,Mexico,98422
Apex,35.7248,-78.8659,United States,50451
Apia,-13.8415,-171.7386,Samoa,61916
Apopka,28.7015,-81.5308,United States,51564
Apple Valley,34.5329,-117.2102,United States,73077
Apple Valley,44.7458,-93.2006,United States,52435
Appleton,44.2774,-88.3894,United States,222222
Apsheronsk,44.4687,39.7287,Russia,45876
Apucarana,-23.55,-51.47,Brazil,107085
Aqsay,51.1714,53.0349,Kazakhstan,34799
Aqtobe,50.28,57.17,Kazakhstan,262457
Aquidauana,-20.4696,-55.79,Brazil,40803
Ar Ramadi,33.42,43.3,Iraq,295121
Ar Raqqah,35.9304,39.02,Syria,177636
Aracaju,-10.9,-37.12,Brazil,685356
Aracati,-4.56,-37.77,Brazil,44293
Araçatuba,-21.21,-50.45,Brazil,170024
Arad,46.17,21.32,Romania,169065
Araguaína,-7.19,-48.21,Brazil,50444
Araguari,-18.64,-48.2,Brazil,96565
Arak,34.0804,49.7,Iran,503647
Aral,46.8,61.6666,Kazakhstan,33017
Arapiraca,-9.75,-36.67,Brazil,187668
Arapongas,-23.41,-51.43,Brazil,97512
Arar,30.99,41.0207,Saudi Arabia,222016
Araranguá,-28.94,-49.5,Brazil,43444
Arauca,7.0907,-70.7616,Colombia,69264
Arawa,-6.228,155.566,Papua New Guinea,40266
Araxá,-19.5796,-46.95,Brazil,82595
Arba Minch,6.04,37.55,Ethiopia,69622
Arcadia,34.1342,-118.0373,United States,58799
Arcata,40.862,-124.0754,United States,33806
Archangel,64.575,40.545,Russia,356051
Arcoverde,-8.42,-37.07,Brazil,57163
Ardabil,38.25,48.3,Iran,414603
Arendal,58.4648,8.766,Norway,30916
Arequipa,-16.42,-71.53,Peru,815000
Arezzo,43.4617,11.875,Italy,91589
Århus,56.1572,10.2107,Denmark,237551
Arica,-18.5,-70.29,Chile,185999
Ariquemes,-9.9396,-63.08,Brazil,58096
Arjona,10.26,-75.35,Colombia,50405
Arlington,32.6998,-97.125,United States,396394
Arlington Heights,42.0956,-87.9825,United States,75634
Arlit,18.82,7.33,Niger,100000
Armavir,45.0004,41.13,Russia,199548
Armenia,4.5343,-75.6811,Colombia,315328
Arnhem,51.988,5.923,Netherlands,141674
Arqalyq,50.2418,66.8976,Kazakhstan,55521
Arras,50.2833,2.7833,France,64165
Arrecife,28.969,-13.5378,Spain,52944
Arroyo Grande,35.1241,-120.5845,United States,54620
Arsenyev,44.1623,133.2823,Russia,58700
Artemisa,22.8134,-82.7619,Cuba,68073
Artemovskiy,57.3652,61.8698,Russia,44689
Artigas,-30.416,-56.486,Uruguay,41909
Artvin,41.183,41.818,Turkey,32272
Arua,3.0204,30.9,Uganda,250000
Arusha,-3.36,36.67,Tanzania,341136
Arvada,39.8321,-105.151,United States,118807
Arxan,47.1833,119.9666,China,32023
Arys,42.4369,68.8048,Kazakhstan,42648
Arzamas,55.4,43.8,Russia,142597
As Salt,32.0392,35.7272,Jordan,140689
As Samawah,31.3099,45.2803,Iraq,174978
As Sib,23.6802,58.1825,Oman,237816
As Sulaymaniyah,35.5613,45.4309,Iraq,723170
As Suwayda,32.7004,36.5666,Syria,72248
Asadabad,34.866,71.15,Afghanistan,48400
Asahikawa,43.755,142.38,Japan,356612
Asansol,23.6833,86.9833,India,1328000
Asbest,57.023,61.458,Russia,81248
Asela,7.9504,39.1399,Ethiopia,82240
Ash Shatrah,31.4175,46.1772,Iraq,161949
Ash Shihr,14.7593,49.6092,Yemen,54274
Asha,54.998,57.2726,Russia,38883
Asheboro,35.7158,-79.8128,United States,39076
Asheville,35.5706,-82.5537,United States,309250
Ashgabat,37.95,58.3833,Turkmenistan,727700
Asmara,15.3333,38.9333,Eritrea,620802
Asosa,10.067,34.5333,Ethiopia,30512
Assab,13.01,42.73,Eritrea,105496
Assen,53,6.55,Netherlands,62237
Assis,-22.6596,-50.42,Brazil,87471
Astana,51.1811,71.4278,Kazakhstan,345604
Asti,44.93,8.21,Italy,71276
Astrakhan,46.3487,48.055,Russia,502533
Asunción,-25.2964,-57.6415,Paraguay,1870000
Aswan,24.0875,32.8989,Egypt,313442
Asyut,27.19,31.1799,Egypt,420585
At Taif,21.2622,40.3823,Saudi Arabia,657282
Atakpamé,7.53,1.12,Togo,80683
Atamyrat,37.8248,65.1997,Turkmenistan,33242
Atar,20.5166,-13.05,Mauritania,44265
Atascadero,35.4827,-120.6858,United States,30418
Atbara,17.71,33.98,Sudan,168612
Atbasar,51.8219,68.3477,Kazakhstan,35819
Athens,37.9833,23.7333,Greece,3242000
Athens,33.9508,-83.3689,United States,140169
Atlanta,33.7626,-84.4228,United States,5228750
Atlantic City,39.3797,-74.4527,United States,241363
Atlixco,18.9,-98.45,Mexico,97842
Attleboro,41.9311,-71.295,United States,44590
Atyrau,47.1127,51.92,Kazakhstan,182753
Auburn,47.3041,-122.211,United States,80776
Auburn,42.9338,-76.5685,United States,31126
Auburn,38.895,-121.0778,United States,34818
Auburn,32.6084,-85.4897,United States,89577
Auckland,-36.8481,174.763,New Zealand,1377200
Augsburg,48.35,10.9,Germany,358989
Augusta,33.3645,-82.0708,United States,389383
Aurangabad,19.8957,75.3203,India,1113000
Aurangabad,24.7704,84.38,India,95929
Aurora,39.7084,-104.7274,United States,366623
Aurora,41.7638,-88.2901,United States,200965
Austin,30.3006,-97.7517,United States,1638716
Autlan,19.77,-104.37,Mexico,47669
Auxerre,47.8004,3.5666,France,41516
Avaré,-23.11,-48.93,Brazil,81285
Aveiro,40.641,-8.651,Portugal,54162
Aventura,25.9566,-80.1371,United States,38202
Avondale,33.3858,-112.3236,United States,217192
Awasa,7.06,38.477,Ethiopia,133097
Aweil,8.7666,27.4,South Sudan,46705
Awka,6.2104,7.07,Nigeria,500000
Ayacucho,-13.175,-74.22,Peru,166314
Ayakoz,47.9647,80.4297,Kazakhstan,45861
Aydın,37.85,27.85,Turkey,198857
Ayr,55.4504,-4.6167,United Kingdom,69042
Ayutthaya,14.3588,100.5684,Thailand,145615
Az Aubayr,30.3892,47.708,Iraq,262219
Az Zahran,26.2914,50.1583,Saudi Arabia,97446
Az Zarqa,32.07,36.1,Jordan,894691
Az Zawiyah,32.7604,12.72,Libya,200000
Azare,11.6804,10.19,Nigeria,105687
Azogues,-2.74,-78.84,Ecuador,69087
Azua,18.454,-70.729,Dominican Republic,59139
Azul,-36.7796,-59.87,Argentina,53941
Azusa,34.1386,-117.9124,United States,49864
Babahoyo,-1.7996,-79.54,Ecuador,76279
Babati,-4.2195,35.75,Tanzania,34291
Babruysk,53.1266,29.1928,Belarus,220517
Bắc Giang,21.267,106.2,Vietnam,53728
Bạc Liêu,9.2804,105.72,Vietnam,225000
Bacabal,-4.23,-44.8,Brazil,72372
Bacău,46.5784,26.9196,Romania,199668
Bacolod,10.6317,122.9817,Philippines,949354
Badajoz,38.8804,-6.97,Spain,140133
Bade,24.9575,121.2989,Taiwan,172065
Badulla,6.9837,81.0499,Sri Lanka,47587
Bærum,59.9135,11.3472,Norway,113659
Bafang,5.1704,10.18,Cameroon,93145
Bafia,4.7504,11.23,Cameroon,69270
Bafoussam,5.4904,10.4099,Cameroon,290768
Bafra,41.5682,35.9069,Turkey,97452
Bagamoyo,-6.4396,38.89,Tanzania,82426
Bagé,-31.32,-54.1,Brazil,106098
Baghdad,33.3386,44.3939,Iraq,5054000
Baghlan,36.1393,68.6993,Afghanistan,218748
Bago,17.32,96.515,Burma,284318
Baguio City,16.43,120.5699,Philippines,447824
Bahawalpur,29.39,71.675,Pakistan,552607
Bahía Blanca,-38.74,-62.265,Argentina,281536
Bahir Dar,11.6001,37.3833,Ethiopia,206748
Bahraich,27.6204,81.6699,India,182218
Baia Mare,47.6595,23.5791,Romania,136553
Baicheng,45.62,122.82,China,386861
Baiquan,47.6018,126.0819,China,70472
Bairin Zuoqi,43.9837,119.1834,China,50000
Baishan,41.9,126.43,China,330000
Bakersfield,35.353,-119.036,United States,574362
Baku,40.3953,49.8622,Azerbaijan,2122300
Balakhna,56.4943,43.5944,Russia,63083
Balakovo,52.03,47.8,Russia,199572
Balashov,51.5535,43.1631,Russia,98107
Balboa,8.95,-79.5667,Panama,62882
Baldwin Park,34.0829,-117.972,United States,76402
Balikpapan,-1.25,116.83,Indonesia,445905
Balıkesir,39.6504,27.89,Turkey,261516
Balkanabat,39.5124,54.3649,Turkmenistan,110827
Balkh,36.7501,66.8997,Afghanistan,179969
Ballarat,-37.5596,143.84,Australia,85109
Ballwin,38.595,-90.5501,United States,30181
Balqash,46.8532,74.9502,Kazakhstan,81364
Balsas,-7.52,-46.05,Brazil,68056
Bălți,47.7591,27.9053,Moldova,151355
Baltimore,39.3051,-76.6144,United States,2170504
Balykchy,42.456,76.1854,Kyrgyzstan,40527
Balyqshy,47.0666,51.8666,Kazakhstan,31624
Bam,29.1077,58.362,Iran,99268
Bama,11.5204,13.69,Nigeria,118121
Bamako,12.65,-8,Mali,1494000
Bambari,5.762,20.6672,Central African Republic,62098
Bamenda,5.96,10.15,Cameroon,445299
Bamian,34.8211,67.521,Afghanistan,61863
Banamba,13.5504,-7.45,Mali,30591
Banda Aceh,5.55,95.32,Indonesia,513698
Bandar Lampung,-5.43,105.27,Indonesia,865000
Bandar Seri Begawan,4.8833,114.9333,Brunei,296500
Bandar-e Bushehr,28.92,50.83,Iran,169060
Bandar-e-Abbas,27.2041,56.2721,Iran,461499
Bandjarmasin,-3.33,114.5801,Indonesia,603576
Bandundu,-3.31,17.38,Congo (Kinshasa),118211
Bandung,-6.95,107.57,Indonesia,2394000
Banes,20.9629,-75.7186,Cuba,53104
Banfora,10.6304,-4.76,Burkina Faso,60288
Bangalore,12.97,77.56,India,6787000
Bangassou,4.7338,22.8166,Central African Republic,32841
Banghazi,32.1167,20.0667,Libya,1180000
Bangkok,13.75,100.5166,Thailand,6704000
Bangor,44.8322,-68.7906,United States,59107
Bangui,4.3666,18.5583,Central African Republic,831925
Baní,18.28,-70.331,Dominican Republic,66709
Bani Walid,31.7704,13.99,Libya,65392
Banja Luka,44.7804,17.18,Bosnia And Herzegovina,221738
Banjul,13.4539,-16.5917,"Gambia, The",43094
Banning,33.946,-116.8991,United States,31230
Bannu,32.989,70.5986,Pakistan,622419
Banská Bystrica,48.7333,19.15,Slovakia,82336
Banyuwangi,-8.195,114.3696,Indonesia,172424
Baoding,38.8704,115.48,China,1107000
Baoji,34.38,107.15,China,800000
Baoshan,25.12,99.15,China,1000000
Baotou,40.6522,109.822,China,2036000
Baqubah,33.7476,44.6573,Iraq,299479
Barabinsk,55.3573,78.3519,Russia,31508
Barahona,18.2004,-71.1,Dominican Republic,90128
Baramula,34.2004,74.35,India,167986
Baranavichy,53.1368,26.0134,Belarus,168772
Barbacena,-21.22,-43.77,Brazil,122211
Barcelona,10.1304,-64.72,Venezuela,600954
Barcelona,41.3833,2.1834,Spain,4920000
Barddhaman,23.2504,87.865,India,301725
Bareilly,28.3454,79.42,India,817000
Bari,41.1142,16.8728,Italy,500577
Barinas,8.6,-70.25,Venezuela,284289
Barisal,22.7004,90.375,Bangladesh,202242
Barletta,41.32,16.27,Italy,107830
Barnaul,53.355,83.745,Russia,599579
Barquisimeto,10.05,-69.3,Venezuela,1116000
Barra do Bugres,-15.0696,-57.19,Brazil,31311
Barra do Corda,-5.5096,-45.26,Brazil,48901
Barra do Garças,-15.8796,-52.26,Brazil,52398
Barra Mansa,-22.56,-44.17,Brazil,169386
Barrancabermeja,7.09,-73.85,Colombia,191403
Barranquilla,10.96,-74.8,Colombia,1798000
Barreiras,-12.14,-45,Brazil,158292
Barreiros,-8.8296,-35.2,Brazil,35565
Barretos,-20.55,-48.58,Brazil,101220
Barrie,44.3838,-79.7,Canada,182041
Barstow,34.8655,-117.0464,United States,30606
Bartlesville,36.7356,-95.9451,United States,39568
Bartlett,35.2337,-89.8195,United States,59102
Bartlett,41.9804,-88.2071,United States,41149
Barysaw,54.226,28.4922,Belarus,155389
Basankusu,1.2337,19.8,Congo (Kinshasa),52216
Basel,47.5804,7.59,Switzerland,830000
Basoko,1.2404,23.59,Congo (Kinshasa),43709
Basra,30.5135,47.8136,Iraq,870000
Bassar,9.261,0.789,Togo,61845
Bastia,42.7032,9.45,France,41001
Bata,1.87,9.77,Equatorial Guinea,173046
Batangas,13.7817,121.0217,Philippines,424508
Batatais,-20.89,-47.59,Brazil,51976
Bataysk,47.1368,39.7449,Russia,109962
Bath,51.3837,-2.35,United Kingdom,93238
Batman,37.8904,41.14,Turkey,302074
Batna,35.57,6.17,Algeria,280798
Baton Rouge,30.4423,-91.1314,United States,583613
Batouri,4.4337,14.3666,Cameroon,43821
Battambang,13.1,103.2,Cambodia,154773
Batticaloa,7.717,81.7,Sri Lanka,129222
Battle Creek,42.2985,-85.2296,United States,76803
Batu Pahat,1.8504,102.9333,Malaysia,199619
Batumi,41.6,41.63,Georgia,155542
Bauchi,10.3104,9.84,Nigeria,316149
Bauru,-22.33,-49.08,Brazil,335024
Bawku,11.0604,-0.24,Ghana,73594
Bay City,43.5903,-83.8886,United States,67059
Bayamo,20.3795,-76.6433,Cuba,192632
Baydhabo,3.12,43.65,Somalia,129839
Baykonur,45.6914,63.2413,Kazakhstan,36175
Bayonne,40.6659,-74.1141,United States,67186
Baytown,29.7607,-94.9628,United States,76804
Beaufort,32.4487,-80.7103,United States,54207
Beaufort West,-32.3496,22.57,South Africa,44737
Beaumont,30.0849,-94.1451,United States,148954
Beaumont,33.9059,-116.9763,United States,46967
Beavercreek,39.731,-84.0624,United States,46948
Beaverton,45.4779,-122.8168,United States,97514
Béchar,31.6111,-2.23,Algeria,143382
Beckley,37.7878,-81.1841,United States,59629
Bedford,32.8464,-97.135,United States,49486
Beer Sheva,31.25,34.83,Palestine,206408
Behbehan,30.5818,50.2615,Iran,85707
Beian,48.239,126.482,China,154936
Beihai,21.4804,109.1,China,728978
Beijing,39.9289,116.3883,China,11106000
Beipiao,41.81,120.76,China,228515
Beira,-19.82,34.87,Mozambique,530604
Beirut,33.872,35.5097,Lebanon,1846000
Beja,38.014,-7.863,Portugal,35854
Béja,36.7304,9.19,Tunisia,59567
Béjaïa,36.7604,5.07,Algeria,384937
Bekasi,-6.2173,106.9723,Indonesia,2378211
Békéscsaba,46.672,21.101,Hungary,65206
Belaya Kalitva,48.1865,40.7861,Russia,48098
Belebey,54.1291,54.1187,Russia,62582
Beledweyne,4.74,45.2,Somalia,62945
Belém,-1.45,-48.48,Brazil,2167000
Belfast,54.6,-5.96,United Kingdom,450406
Belgaum,15.865,74.505,India,608756
Belgorod,50.63,36.5999,Russia,345289
Belgrade,44.8186,20.468,Serbia,1099000
Belize City,17.4987,-88.1884,Belize,63028
Bell,33.9801,-118.1798,United States,35811
Bell Gardens,33.9663,-118.155,United States,42747
Bell Ville,-32.6,-62.68,Argentina,35105
Bellary,15.15,76.915,India,445388
Belleville,44.1667,-77.3833,Canada,43990
Belleville,38.5165,-89.9899,United States,41649
Bellevue,47.5953,-122.1551,United States,144444
Bellevue,41.1535,-95.9357,United States,53424
Bellflower,33.888,-118.1271,United States,77772
Bellingham,48.7543,-122.4687,United States,126015
Bello,6.33,-75.57,Colombia,519670
Belo Horizonte,-19.915,-43.915,Brazil,5575000
Belogorsk,50.9191,128.4637,Russia,70203
Beloit,42.523,-89.0184,United States,63498
Bend,44.0562,-121.3087,United States,103349
Bendigo,-36.76,144.28,Australia,81657
Benevento,41.1337,14.75,Italy,61791
Bengbu,32.95,117.33,China,894000
Bengkulu,-3.8,102.27,Indonesia,426673
Benguela,-12.5783,13.4072,Angola,151226
Benha,30.4667,31.1833,Egypt,167029
Beni,0.4904,29.45,Congo (Kinshasa),332903
Beni Mazar,28.4904,30.81,Egypt,79553
Beni Suef,29.0804,31.09,Egypt,489450
Benin City,6.3405,5.62,Nigeria,1190000
Benoni,-26.1496,28.3299,South Africa,2986000
Bento Gonçalves,-29.1695,-51.52,Brazil,94271
Benton,34.577,-92.5716,United States,35789
Benton Harbor,42.1159,-86.4488,United States,59939
Bentonville,36.358,-94.2287,United States,49298
Benxi,41.3304,123.75,China,1012000
Berat,40.71,19.972,Albania,46866
Berber,18.017,33.9833,Sudan,49556
Berbérati,4.25,15.78,Central African Republic,61815
Berdyansk,46.7568,36.7868,Ukraine,118284
Berekum,7.4504,-2.59,Ghana,46287
Berezniki,59.42,56.76,Russia,167748
Bergamo,45.7004,9.67,Italy,200000
Bergen,60.391,5.3245,Norway,213585
Berkeley,37.8723,-122.276,United States,122324
Berlin,52.5218,13.4015,Germany,3406000
Bermejo,-22.7296,-64.35,Bolivia,36544
Bern,46.9167,7.467,Switzerland,275329
Bertoua,4.5804,13.68,Cameroon,218111
Berwyn,41.8433,-87.7909,United States,55550
Besançon,47.23,6.03,France,128426
Bethal,-26.4696,29.45,South Africa,101919
Bethel Park,40.3239,-80.0364,United States,32404
Bethlehem,-28.2196,28.3,South Africa,83654
Bethlehem,40.6266,-75.3679,United States,75707
Bettendorf,41.5656,-90.4764,United States,35813
Beverly,42.5681,-70.8627,United States,41816
Beverly Hills,34.0786,-118.4021,United States,34484
Beyneu,45.1834,55.1,Kazakhstan,32452
Bezhetsk,57.7647,36.69,Russia,34736
Béziers,43.3505,3.21,France,81438
Bhagalpur,25.23,86.98,India,361548
Bhairawa,27.5333,83.3833,Nepal,63367
Bharatpur,27.2504,77.5,India,229384
Bhatpara,22.8504,88.52,India,483129
Bhavnagar,21.7784,72.13,India,554978
Bhilai,21.2167,81.4333,India,1097000
Bhilwara,25.3504,74.635,India,389911
Bhisho,-32.87,27.39,South Africa,160997
Bhiwandi,19.35,73.13,India,795000
Bhiwani,28.81,76.125,India,190855
Bhopal,23.25,77.41,India,1727000
Bhubaneshwar,20.2704,85.8274,India,844000
Bhuj,23.2504,69.81,India,289429
Bhusawal,21.02,75.83,India,183001
Biak,-1.1615,136.0485,Indonesia,103610
Białystok,53.1504,23.17,Poland,291855
Biarritz,43.4733,-1.5616,France,145348
Bida,9.0804,6.01,Nigeria,173849
Bidar,17.9229,77.5175,India,300136
Biel,47.1666,7.25,Switzerland,78708
Bielefeld,52.03,8.53,Germany,331906
Biên Hòa,10.97,106.8301,Vietnam,652646
Biharamulo,-2.6296,31.31,Tanzania,34038
Bijapur,16.8354,75.71,India,271064
Bijar,35.8741,47.5937,Iran,53871
Bikaner,28.0304,73.3299,India,576015
Bila Tserkva,49.7743,30.1309,Ukraine,199163
Bilaspur,22.0904,82.16,India,543454
Bilbao,43.25,-2.93,Spain,875552
Bilecik,40.15,29.983,Turkey,40285
Billings,45.7889,-108.5503,United States,120800
Biloxi,30.4422,-88.9512,United States,45908
Binga,2.3834,20.42,Congo (Kinshasa),64639
Binghamton,42.1014,-75.9093,United States,150747
Bingöl,38.885,40.498,Turkey,80568
Binjai,3.6204,98.5001,Indonesia,564979
Bintulu,3.1664,113.036,Malaysia,151617
Birak,27.5333,14.2834,Libya,45421
Biratnagar,26.4837,87.2833,Nepal,182324
Birganj,27.0004,84.8666,Nepal,133238
Birjand,32.88,59.2199,Iran,324703
Birmingham,52.475,-1.92,United Kingdom,2285000
Birmingham,33.5276,-86.7988,United States,744189
Birni Nkonni,13.7904,5.2599,Niger,65252
Birnin Kebbi,12.4504,4.1999,Nigeria,108164
Birobidzhan,48.7974,132.9508,Russia,76146
Birsk,55.4244,55.5444,Russia,41014
Bishkek,42.8731,74.5852,Kyrgyzstan,837000
Biskra,34.86,5.73,Algeria,202103
Bismarck,46.814,-100.7695,United States,97457
Bissau,11.865,-15.5984,Guinea-Bissau,403339
Bistrița,47.138,24.513,Romania,81318
Bitlis,38.394,42.123,Turkey,62811
Bitola,41.0391,21.3395,Macedonia,86528
Biu,10.6204,12.19,Nigeria,95005
Biysk,52.5341,85.18,Russia,215430
Bizerte,37.2904,9.855,Tunisia,139843
Blackpool,53.8304,-3.05,United Kingdom,272792
Blacksburg,37.23,-80.428,United States,92573
Blagodarnyy,45.1047,43.4344,Russia,35995
Blagoveshchensk,50.2666,127.5333,Russia,221296
Blaine,45.1696,-93.2077,United States,64557
Blantyre,-15.79,34.9899,Malawi,584877
Blida,36.4203,2.83,Algeria,511348
Blitar,-8.0696,112.15,Indonesia,132416
Bloemfontein,-29.12,26.2299,South Africa,463064
Bloomington,40.4757,-88.9705,United States,134892
Bloomington,39.1637,-86.5256,United States,114959
Bloomington,44.8306,-93.3151,United States,85866
Bloomsburg,41.0027,-76.4561,United States,51356
Blue Springs,39.0124,-94.2722,United States,54945
Bluefield,37.2605,-81.2155,United States,41653
Bluefields,12,-83.7649,Nicaragua,44373
Blumenau,-26.92,-49.09,Brazil,293949
Bo,7.97,-11.74,Sierra Leone,174354
Boa Vista,2.8161,-60.666,Brazil,235150
Bobo Dioulasso,11.18,-4.29,Burkina Faso,360106
Boca Raton,26.3749,-80.1077,United States,98150
Bocaiúva,-17.1096,-43.81,Brazil,32114
Bodø,67.2468,14.399,Norway,34073
Boende,-0.2196,20.86,Congo (Kinshasa),32091
Bogor,-6.57,106.75,Indonesia,918000
Bogoroditsk,53.7747,38.1144,Russia,39553
Bogota,4.5964,-74.0833,Colombia,7772000
Boise,43.6006,-116.2316,United States,385218
Bojnurd,37.47,57.32,Iran,208582
Boké,10.94,-14.3,Guinea,116270
Bolgatanga,10.7904,-0.85,Ghana,82177
Boli,45.7564,130.5759,China,95260
Bolingbrook,41.6903,-88.102,United States,75201
Bologna,44.5004,11.34,Italy,488172
Bolu,40.7363,31.6061,Turkey,96629
Bolzano,46.5004,11.36,Italy,95895
Bom Jesus da Lapa,-13.2495,-43.44,Brazil,40691
Boma,-5.83,13.05,Congo (Kinshasa),178638
Bombo,0.5833,32.5333,Uganda,75000
Bonao,18.942,-70.409,Dominican Republic,73269
Bondoukou,8.0304,-2.8,Côte D’Ivoire,58297
Bongor,10.2859,15.3872,Chad,193941
Bonita Springs,26.3559,-81.7861,United States,396220
Bonn,50.7205,7.08,Germany,680543
Bontang,0.1333,117.5,Indonesia,101691
Boosaaso,11.28,49.18,Somalia,46969
Borås,57.7304,12.92,Sweden,65008
Bordeaux,44.85,-0.595,France,803000
Bordj Bou Arréridj,36.059,4.63,Algeria,140000
Borisoglebsk,51.3687,42.0887,Russia,68597
Borlänge,60.4833,15.4167,Sweden,39422
Borovichi,58.3978,33.8974,Russia,57887
Borujerd,33.92,48.8,Iran,251958
Borzya,50.3886,116.5186,Russia,30421
Bose,23.8997,106.6133,China,175282
Bossangoa,6.4837,17.45,Central African Republic,63064
Bossier City,32.523,-93.6666,United States,68554
Boston,42.3188,-71.0846,United States,4637537
Bothell,47.7736,-122.2044,United States,45533
Botoșani,47.7484,26.6597,Romania,114783
Botucatu,-22.8796,-48.45,Brazil,113862
Bouaflé,6.978,-5.748,Côte D’Ivoire,60962
Bouaké,7.69,-5.03,Côte D’Ivoire,567481
Bouar,5.95,15.6,Central African Republic,34372
Bougouni,11.4204,-7.49,Mali,35450
Bouïra,36.3805,3.9,Algeria,110144
Boulder,40.0249,-105.2523,United States,126054
Bountiful,40.8722,-111.8647,United States,44107
Bourem,16.9004,-0.35,Mali,30000
Bourges,47.0837,2.4,France,72340
Bournemouth,50.73,-1.9,United Kingdom,426945
Bowie,38.9575,-76.7421,United States,58859
Bowling Green,41.3773,-83.65,United States,32572
Bowling Green,36.9721,-86.4367,United States,90448
Boyarka,70.767,97.5,Russia,35968
Boynton Beach,26.5282,-80.0811,United States,77702
Bozeman,45.6828,-111.0548,United States,53949
Bozoum,6.317,16.3833,Central African Republic,40201
Bradenton,27.49,-82.5743,United States,56508
Bradford,53.8,-1.75,United Kingdom,501700
Braga,41.555,-8.4213,Portugal,826833
Bragança,41.808,-6.755,Portugal,34375
Bragança,-1.05,-46.77,Brazil,57163
Bragança Paulista,-22.95,-46.55,Brazil,127676
Brahmapur,19.32,84.8,India,324726
Brăila,45.292,27.969,Romania,213569
Brasília,-15.7833,-47.9161,Brazil,3716996
Brașov,45.6475,25.6072,Romania,311044
Bratislava,48.15,17.117,Slovakia,423737
Bratsk,56.157,101.615,Russia,246348
Braunschweig,52.25,10.5,Germany,244715
Brazzaville,-4.2592,15.2847,Congo (Brazzaville),1355000
Brea,33.9255,-117.8654,United States,42777
Bremen,53.08,8.8,Germany,724909
Bremerhaven,53.5504,8.58,Germany,137751
Bremerton,47.5436,-122.7122,United States,216480
Brentwood,35.9917,-86.7758,United States,42667
Brentwood,37.9355,-121.7191,United States,62433
Brest,52.1,23.7,Belarus,300715
Brest,48.3904,-4.495,France,144899
Breves,-1.68,-50.49,Brazil,47164
Bridgeport,41.1909,-73.1958,United States,938406
Bridgeton,39.4286,-75.2281,United States,33856
Bridgetown,13.102,-59.6165,Barbados,191152
Brighton,50.8303,-0.17,United Kingdom,503008
Brighton,39.9714,-104.7966,United States,40562
Brikama,13.2804,-16.6599,"Gambia, The",195136
Brindisi,40.6403,17.93,Italy,104437
Brisbane,-27.455,153.0351,Australia,1860000
Bristol,51.45,-2.5833,United Kingdom,553528
Bristol,36.5572,-82.2144,United States,69865
Bristol,41.6812,-72.9407,United States,60223
Brits,-25.6296,27.78,South Africa,122497
Brive,45.1504,1.5333,France,55448
Brno,49.2004,16.61,Czechia,388277
Brockton,42.0821,-71.0242,United States,95672
Broken Arrow,36.0365,-95.7808,United States,108303
Bronx,40.8501,-73.8662,United States,1455720
Brookfield,43.064,-88.1232,United States,38045
Brookhaven,33.8746,-84.3314,United States,53518
Brooklyn,40.6501,-73.9496,United States,2629150
Brooklyn Center,45.0681,-93.3162,United States,31006
Brooklyn Park,45.1112,-93.3505,United States,80581
Broomfield,39.9541,-105.0527,United States,68341
Brovary,50.4943,30.7809,Ukraine,88506
Brownsville,25.998,-97.4565,United States,227883
Brugge,51.2204,3.23,Belgium,146469
Brumado,-14.21,-41.67,Brazil,41989
Brunswick,31.145,-81.474,United States,54017
Brunswick,41.2464,-81.8198,United States,34867
Brusque,-27.13,-48.93,Brazil,88284
Brussels,50.8333,4.3333,Belgium,1743000
Bryan,30.6657,-96.3672,United States,84021
Bryansk,53.26,34.43,Russia,427236
Bucaramanga,7.1301,-73.1259,Colombia,1009000
Buchanan,5.9161,-10.0525,Liberia,48315
Bucharest,44.4334,26.0999,Romania,1942000
Buckeye,33.4318,-112.643,United States,68453
Budapest,47.5,19.0833,Hungary,1679000
Budaun,28.03,79.09,India,161555
Buea,4.155,9.231,Cameroon,90088
Buena Park,33.8572,-118.0046,United States,83015
Buenaventura,3.8724,-77.0505,Colombia,252805
Buenos Aires,-34.6025,-58.3975,Argentina,12795000
Buffalo,42.9017,-78.8487,United States,926261
Buffalo Grove,42.1673,-87.9616,United States,41226
Bugulma,54.5543,52.7943,Russia,91900
Buguruslan,53.663,52.433,Russia,53511
Buizhou,37.3704,118.02,China,115893
Bujumbura,-3.3761,29.36,Burundi,331700
Bukama,-9.2096,25.84,Congo (Kinshasa),38770
Bukavu,-2.51,28.84,Congo (Kinshasa),436779
Bukhara,39.78,64.43,Uzbekistan,319476
Bukittinggi,-0.3031,100.3615,Indonesia,506964
Bukoba,-1.3196,31.8,Tanzania,100504
Bulandshahr,28.4104,77.8484,India,198612
Bulawayo,-20.17,28.58,Zimbabwe,699385
Bullhead City,35.1205,-114.546,United States,49531
Bulungu,-4.5496,18.6,Congo (Kinshasa),48344
Bumba,2.19,22.46,Congo (Kinshasa),160539
Bundaberg,-24.8791,152.3509,Australia,52472
Bungoma,0.5704,34.56,Kenya,55962
Bunia,1.5604,30.24,Congo (Kinshasa),96764
Buon Me Thuot,12.667,108.05,Vietnam,349945
Bur Safaga,26.7337,33.9333,Egypt,32944
Bur Said,31.26,32.29,Egypt,623864
Buraydah,26.3664,43.9628,Saudi Arabia,398581
Burbank,34.1879,-118.3234,United States,104834
Burdur,37.7167,30.2833,Turkey,66158
Burgas,42.5146,27.4746,Bulgaria,195966
Burgos,42.3504,-3.68,Spain,170183
Burhanpur,21.3004,76.13,India,197233
Burien,47.4762,-122.3393,United States,51671
Buriram,15.0004,103.1166,Thailand,47292
Burleson,32.5173,-97.3346,United States,46145
Burlingame,37.586,-122.3669,United States,30686
Burlington,36.0762,-79.4687,United States,127374
Burlington,44.4877,-73.2314,United States,108277
Burnsville,44.7648,-93.2795,United States,61439
Bursa,40.2,29.07,Turkey,1492000
Busan,35.0951,129.01,"Korea, South",3480000
Busia,0.4544,34.0758,Uganda,47100
Businga,3.3404,20.87,Congo (Kinshasa),34247
Buta,2.82,24.74,Congo (Kinshasa),45677
Butare,-2.5896,29.73,Rwanda,77000
Butembo,0.13,29.28,Congo (Kinshasa),286403
Butler,40.8615,-79.8962,United States,38447
Butte,45.902,-112.6571,United States,30628
Butterworth,5.4171,100.4,Malaysia,821652
Butuan,8.9495,125.5436,Philippines,190557
Buurhakaba,2.7837,44.0833,Somalia,31267
Buynaksk,42.8335,47.113,Russia,75800
Buzău,45.1565,26.8065,Romania,130954
Buzmeyin,38.0517,58.21,Turkmenistan,40813
Buzuluk,52.7821,52.2618,Russia,87714
Bydgoszcz,53.1204,18.01,Poland,366452
Bytom,50.35,18.91,Poland,662247
Byumba,-1.5796,30.06,Rwanda,70593
Cà Mau,9.1774,105.15,Vietnam,356636
Cabanatuan,15.5021,120.9617,Philippines,220250
Cabimas,10.43,-71.45,Venezuela,441094
Cabinda,-5.5596,12.19,Angola,91791
Cabo de Santo Agostinho,-8.29,-35.03,Brazil,146219
Cabo Frio,-22.89,-42.04,Brazil,261721
Cabo San Lucas,22.8928,-109.9045,Mexico,42601
Caboolture,-27.083,152.95,Australia,31513
Caborca,30.7161,-112.1642,Mexico,57357
Caçador,-26.77,-51.02,Brazil,63726
Čačak,43.8897,20.3301,Serbia,170000
Cáceres,-16.05,-57.51,Brazil,85274
Cachoeira do Sul,-30.03,-52.91,Brazil,74694
Cachoeiro de Itapemirim,-20.85,-41.13,Brazil,187019
Cadiz,10.9587,123.3086,Philippines,283157
Cádiz,36.535,-6.225,Spain,283157
Caen,49.1838,-0.35,France,190099
Cagayan de Oro,8.4508,124.6853,Philippines,1121561
Cagliari,39.2224,9.104,Italy,291511
Cahul,45.9079,28.1944,Moldova,63407
Caibarién,22.5158,-79.4722,Cuba,39140
Caicó,-6.4596,-37.1,Brazil,54934
Cairns,-16.8878,145.7633,Australia,154225
Cairo,30.05,31.25,Egypt,11893000
Cajamarca,-7.15,-78.53,Peru,142665
Calabar,4.9604,8.33,Nigeria,461796
Calabozo,8.9304,-67.44,Venezuela,117132
Calais,50.9504,1.8333,France,92201
Calama,-22.45,-68.92,Chile,143084
Călărași,44.2063,27.3259,Romania,73224
Calbayog,12.0672,124.6042,Philippines,67921
Caldwell,43.6458,-116.6591,United States,54660
Calexico,32.6849,-115.4944,United States,40351
Calgary,51.083,-114.08,Canada,1110000
Calhoun,34.4927,-84.9395,United States,33029
Cali,3.4,-76.5,Colombia,2254000
Callao,-12.07,-77.135,Peru,876877
Caloundra,-26.8,153.1333,Australia,38706
Calumet City,41.6133,-87.5502,United States,36633
Cẩm Phả,21.0404,107.32,Vietnam,135477
Cam Ranh,11.902,109.2207,Vietnam,146771
Camagüey,21.3808,-77.9169,Cuba,347562
Camaquã,-30.8396,-51.81,Brazil,53169
Camarillo,34.223,-119.0323,United States,74682
Cambridge,52.2004,0.1166,United Kingdom,128488
Cambridge,42.3758,-71.1184,United States,113630
Camden,39.9361,-75.1073,United States,74532
Cametá,-2.2396,-49.51,Brazil,45200
Camocim,-2.9,-40.85,Brazil,44481
Campana,-34.16,-58.96,Argentina,81612
Campbell,37.2803,-121.9542,United States,41544
Campbell River,50.0171,-125.25,Canada,33430
Campeche,19.83,-90.5,Mexico,205212
Campina Grande,-7.23,-35.88,Brazil,417261
Campinas,-22.9,-47.1,Brazil,2791000
Campo Belo,-20.8896,-45.28,Brazil,47491
Campo Grande,-20.45,-54.6166,Brazil,778000
Campo Maior,-4.82,-42.18,Brazil,31739
Campo Murao,-24.0496,-52.42,Brazil,75401
Campobasso,41.563,14.656,Italy,50762
Campos,-21.75,-41.32,Brazil,387417
Can Tho,10.05,105.77,Vietnam,1121000
Çanakkale,40.1459,26.4064,Turkey,87791
Cananea,30.9904,-110.3,Mexico,33433
Canberra,-35.283,149.129,Australia,327700
Cancún,21.17,-86.83,Mexico,542043
Canela,-29.36,-50.81,Brazil,60806
Cangzhou,38.3204,116.87,China,527681
Canindé,-4.35,-39.31,Brazil,42720
Çankırı,40.607,33.621,Turkey,71379
Canoas,-29.92,-51.18,Brazil,600000
Canoinhas,-26.18,-50.4,Brazil,41498
Canton,40.8076,-81.3677,United States,271184
Cao Bằng,22.664,106.268,Vietnam,41112
Cao Lãnh,10.467,105.636,Vietnam,149837
Cap-Haïtien,19.7592,-72.2125,Haiti,281487
Capanema,-1.19,-47.18,Brazil,47766
Cape Coast,5.1104,-1.25,Ghana,143015
Cape Coral,26.6444,-81.9956,United States,630134
Cape Girardeau,37.3108,-89.5596,United States,54588
Cape Town,-33.92,18.435,South Africa,3215000
Capenda-Camulemba,-9.4196,18.43,Angola,80000
Capitão Poço,-1.7496,-47.09,Brazil,32704
Caracas,10.501,-66.917,Venezuela,2985000
Caratinga,-19.79,-42.14,Brazil,60066
Carazinho,-28.29,-52.8,Brazil,59417
Carbondale,37.722,-89.2238,United States,67807
Cardiff,51.5,-3.225,United Kingdom,861400
Carlisle,54.88,-2.93,United Kingdom,72633
Carlsbad,32.4067,-104.2376,United States,32848
Carlsbad,33.1246,-117.2837,United States,115330
Carmel,39.9658,-86.1461,United States,92198
Carnot,4.9337,15.8666,Central African Republic,38071
Carol Stream,41.9183,-88.1309,United States,39989
Carora,10.19,-70.08,Venezuela,149711
Carpentersville,42.1227,-88.2894,United States,38162
Carpina,-7.84,-35.26,Brazil,165579
Carrollton,32.9886,-96.9,United States,135710
Carrollton,33.5818,-85.0837,United States,47140
Carson,33.8374,-118.2559,United States,92735
Carson City,39.1512,-119.7474,United States,57525
Cartagena,10.3997,-75.5144,Colombia,887000
Cartagena,37.6004,-0.98,Spain,201274
Cartago,4.75,-75.91,Colombia,134827
Cartago,9.87,-83.93,Costa Rica,196946
Cartersville,34.1632,-84.8007,United States,55794
Caruaru,-8.28,-35.98,Brazil,242094
Carúpano,10.67,-63.23,Venezuela,126293
Cary,35.7814,-78.8167,United States,165904
Casa Grande,32.907,-111.7624,United States,58632
Casablanca,33.6,-7.6164,Morocco,3181000
Cascavel,-24.9596,-53.46,Brazil,257172
Caserta,41.06,14.3374,Italy,250000
Casma,-9.44,-78.21,Peru,30000
Casper,42.8421,-106.3208,United States,67462
Castanhal,-1.2896,-47.93,Brazil,137406
Castello,39.9704,-0.05,Spain,180610
Castelo Branco,39.811,-7.488,Portugal,33479
Castle Rock,39.3761,-104.8534,United States,62276
Castries,14.002,-61,Saint Lucia,37963
Castro,-24.79,-50.01,Brazil,42091
Catalão,-18.18,-47.95,Brazil,63544
Catamarca,-28.47,-65.78,Argentina,188812
Catanduva,-21.14,-48.98,Brazil,109612
Catania,37.5,15.08,Italy,674542
Catanzaro,38.9004,16.6,Italy,95251
Cathedral City,33.8363,-116.4642,United States,54596
Cauquenes,-35.96,-72.32,Chile,31362
Caxias,-4.833,-43.35,Brazil,134640
Caxias do Sul,-29.18,-51.17,Brazil,381270
Cayenne,4.933,-52.33,French Guiana,61550
Cebu,10.32,123.9001,Philippines,815000
Cedar City,37.6835,-113.0957,United States,36592
Cedar Falls,42.5195,-92.4534,United States,41570
Cedar Hill,32.5809,-96.9592,United States,48710
Cedar Park,30.5105,-97.8198,United States,75704
Cedar Rapids,41.9667,-91.6782,United States,186160
Celaya,20.53,-100.8,Mexico,383697
Centennial,39.5926,-104.8674,United States,110250
Centralia,46.7226,-122.9695,United States,41643
Ceres,37.5953,-120.9625,United States,48697
Cerritos,33.8677,-118.0686,United States,51020
Cerro de Pasco,-10.69,-76.27,Peru,137232
České Budějovice,48.98,14.46,Czechia,98851
Ceuta,35.889,-5.307,Spain,78674
Chabahar,25.3004,60.6299,Iran,65801
Chacabuco,-34.65,-60.49,Argentina,34587
Chachoengsao,13.679,101.076,Thailand,49741
Chaiyaphum,15.804,102.0386,Thailand,58350
Chake Chake,-5.2395,39.77,Tanzania,49959
Chalkida,38.464,23.6124,Greece,71842
Chaman,30.925,66.4463,Pakistan,88568
Chambersburg,39.9315,-77.6556,United States,52418
Chamdo,31.1667,97.2333,China,100000
Champaign,40.1144,-88.2735,United States,156794
Chandigarh,30.72,76.78,India,979000
Chandler,33.2827,-111.8516,United States,253458
Chandrapur,19.97,79.3,India,595118
Changchun,43.865,125.34,China,3183000
Changde,29.03,111.68,China,1469000
Changhua,24.0734,120.5134,Taiwan,750000
Changling,44.27,123.99,China,55841
Changping,40.2248,116.1944,China,614821
Changsha,28.2,112.97,China,2604000
Changting,25.867,116.3167,China,87458
Changwon,35.2191,128.5836,"Korea, South",1081499
Changyon,38.2517,125.1021,"Korea, North",48984
Changzhi,36.1839,113.1053,China,706000
Changzhou,31.78,119.97,China,1327000
Chanthaburi,12.6133,102.0979,Thailand,99819
Chaoyang,41.5504,120.42,China,470296
Chaozhou,23.68,116.63,China,424787
Chapadinha,-3.7395,-43.36,Brazil,40804
Chapayevsk,52.9743,49.7243,Russia,107164
Chapel Hill,35.9269,-79.039,United States,59862
Charikar,35.0183,69.1679,Afghanistan,53676
Charleroi,50.4204,4.45,Belgium,345367
Charleston,38.3484,-81.6323,United States,142858
Charleston,32.8137,-79.9643,United States,616085
Charlotte,35.2079,-80.8303,United States,1467362
Charlottesville,38.0375,-78.4855,United States,102016
Charlottetown,46.2493,-63.1313,Canada,42402
Chattanooga,35.0657,-85.2488,United States,407182
Châu Đốc,10.7004,105.1167,Vietnam,70239
Chauk,20.9085,94.823,Burma,90870
Cheboksary,56.13,47.25,Russia,446781
Chelsea,42.3959,-71.0325,United States,40227
Chelyabinsk,55.155,61.4387,Russia,1091000
Chemnitz,50.83,12.92,Germany,302643
Chengde,40.9604,117.93,China,449325
Chengdu,30.67,104.07,China,4123000
Chennai,13.09,80.28,India,7163000
Chenzhou,25.8004,113.0301,China,322997
Cheongju,36.6439,127.5012,"Korea, South",775096
Cherbourg,49.6504,-1.65,France,60991
Cheremkhovo,53.1588,103.0739,Russia,57395
Cherepovets,59.1404,37.91,Russia,311850
Cherkasy,49.4347,32.0709,Ukraine,297568
Cherkessk,44.2904,42.06,Russia,116224
Chernihiv,51.5049,31.3015,Ukraine,307684
Chernivtsi,48.3053,25.9216,Ukraine,298251
Chernogorsk,53.8313,91.2227,Russia,71582
Chernyakhovsk,54.6316,21.8109,Russia,45187
Chesapeake,36.6778,-76.3024,United States,240397
Chester,53.2,-2.92,United Kingdom,89531
Chester,39.8456,-75.3719,United States,34077
Chesterfield,38.6588,-90.5805,United States,47588
Chetumal,18.5,-88.3,Mexico,154517
Cheyenne,41.1406,-104.7926,United States,78728
Chiang Mai,18.8,98.98,Thailand,397211
Chiang Rai,19.9119,99.8265,Thailand,117127
Chiayi,23.4755,120.4351,Taiwan,500000
Chicago,41.8373,-87.6861,United States,8675982
Chiclayo,-6.7629,-79.8366,Peru,596792
Chico,39.7574,-121.815,United States,106268
Chicopee,42.1764,-72.5719,United States,55515
Chicoutimi,48.4333,-71.0667,Canada,53940
Chifeng,42.27,118.95,China,1277000
Chihuahua,28.645,-106.085,Mexico,793000
Chililabombwe,-12.3696,27.82,Zambia,82068
Chillán,-36.6,-72.106,Chile,150396
Chillicothe,39.3393,-82.9937,United States,31671
Chilliwack,49.1666,-121.95,Canada,51942
Chilpancingo,17.55,-99.5,Mexico,182387
Chimaltenango,14.662,-90.82,Guatemala,82370
Chimbote,-9.07,-78.57,Peru,349846
Chimboy,42.9311,59.7708,Uzbekistan,36917
Chimoio,-19.12,33.47,Mozambique,256936
Chinandega,12.6304,-87.13,Nicaragua,139023
Chincha Alta,-13.4196,-76.14,Peru,153076
Chingola,-12.5396,27.85,Zambia,182015
Chinhoyi,-17.3596,30.18,Zimbabwe,61739
Chiniot,31.72,72.98,Pakistan,201781
Chino,33.9836,-117.6653,United States,89797
Chino Hills,33.9508,-117.7254,United States,80374
Chipata,-13.6296,32.64,Zambia,85963
Chiquimula,14.797,-89.544,Guatemala,41521
Chiquinquirá,5.6204,-73.8199,Colombia,53975
Chirala,15.8604,80.34,India,253000
Chirchiq,41.455,69.56,Uzbekistan,167842
Chișinău,47.005,28.8577,Moldova,688134
Chistopol,55.3648,50.6407,Russia,62200
Chita,52.055,113.465,Russia,308500
Chitré,7.97,-80.42,Panama,44082
Chittagong,22.33,91.8,Bangladesh,4529000
Chitungwiza,-18,31.1,Zimbabwe,340360
Chivilcoy,-34.9,-60.04,Argentina,54514
Chlef,36.1704,1.32,Algeria,449167
Choluteca,13.3007,-87.1908,Honduras,99429
Choma,-16.8095,26.97,Zambia,46746
Chon Buri,13.4004,101,Thailand,226618
Chone,-0.6896,-80.09,Ecuador,44751
Chongjin,41.7846,129.79,"Korea, North",672614
Chongju,39.6813,125.2163,"Korea, North",141769
Chongqing,29.565,106.595,China,6461000
Chosica,-11.93,-76.71,Peru,88606
Choybalsan,48.0666,114.506,Mongolia,33376
Christchurch,-43.535,172.63,New Zealand,363200
Chukai,4.2332,103.4479,Malaysia,82425
Chula Vista,32.6281,-117.0145,United States,270471
Chulucanas,-5.0896,-80.17,Peru,68835
Chumphon,10.5127,99.1872,Thailand,85686
Chuncheon,37.8747,127.7342,"Korea, South",226509
Chur,46.85,9.5,Switzerland,38293
Chusovoy,58.2934,57.813,Russia,72113
Chuxiong,25.0364,101.5456,China,254370
Cicero,41.8445,-87.7593,United States,82552
Ciego de Ávila,21.84,-78.7619,Cuba,142027
Ciénaga,11.0104,-74.25,Colombia,131171
Cienfuegos,22.1444,-80.4403,Cuba,186644
Cilacap,-7.7188,109.0154,Indonesia,1174964
Cincinnati,39.1412,-84.5059,United States,1648254
Cirebon,-6.7333,108.5666,Indonesia,254298
Citrus Heights,38.6948,-121.288,United States,87931
City of Milford (balance),41.2253,-73.0624,United States,52970
Ciudad Bolívar,8.1,-63.6,Venezuela,338000
Ciudad Camargo,27.6904,-105.1701,Mexico,37743
Ciudad Constitución,25.04,-111.66,Mexico,39915
Ciudad del Carmen,18.6537,-91.8245,Mexico,156195
Ciudad del Este,-25.5167,-54.6161,Paraguay,320872
Ciudad Guayana,8.37,-62.62,Venezuela,746535
Ciudad Guzman,19.7104,-103.46,Mexico,92161
Ciudad Hidalgo,19.68,-100.57,Mexico,64154
Ciudad Juárez,31.6904,-106.49,Mexico,1343000
Ciudad Madero,22.3189,-97.8361,Mexico,192736
Ciudad Mante,22.7334,-98.95,Mexico,79981
Ciudad Obregon,27.4666,-109.925,Mexico,288002
Ciudad Valles,21.98,-99.02,Mexico,114964
Ciudad Victoria,23.72,-99.13,Mexico,274900
Civitavecchia,42.1004,11.8,Italy,61316
Claremont,34.1259,-117.7153,United States,36015
Clarksburg,39.2863,-80.323,United States,41453
Clarksville,36.5696,-87.3428,United States,182849
Clearfield,41.103,-112.0237,United States,31363
Clearwater,27.9786,-82.7622,United States,115513
Cleburne,32.3562,-97.4146,United States,36193
Clermont,28.5403,-81.7296,United States,35211
Clermont-Ferrand,45.78,3.08,France,233050
Cleveland,35.1817,-84.8707,United States,71944
Cleveland,41.4767,-81.6805,United States,1730363
Cleveland Heights,41.5112,-81.5636,United States,44562
Clifton,40.8631,-74.1575,United States,86607
Clinton,41.8434,-90.2408,United States,30642
Clovis,34.4376,-103.1923,United States,42875
Clovis,36.8278,-119.6841,United States,109691
Cluj-Napoca,46.7884,23.5984,Romania,316748
Coachella,33.6905,-116.143,United States,45443
Coari,-4.08,-63.13,Brazil,53305
Coatzacoalcos,18.1204,-94.42,Mexico,287285
Cobán,15.47,-90.38,Guatemala,65194
Cobija,-11.0333,-68.7333,Bolivia,44437
Coburg,50.2666,10.9666,Germany,61054
Cochabamba,-17.41,-66.17,Bolivia,1000000
Coconut Creek,26.2803,-80.1842,United States,61010
Codó,-4.4796,-43.88,Brazil,83288
Coeur d'Alene,47.7039,-116.7933,United States,112935
Coffs Harbour,-30.3071,153.1123,Australia,62978
Coihaique,-45.57,-72.07,Chile,45787
Coimbatore,11,76.95,India,1696000
Coimbra,40.2004,-8.4167,Portugal,106582
Cojutepeque,13.7167,-88.9333,El Salvador,48411
Colima,19.23,-103.72,Mexico,223287
College Park,38.9962,-76.9337,United States,32303
College Station,30.5852,-96.296,United States,207308
Collierville,35.0474,-89.699,United States,50286
Cologne,50.93,6.95,Germany,1004000
Colombo,6.932,79.8578,Sri Lanka,217000
Colón,9.365,-79.875,Panama,204000
Colón,22.7196,-80.9058,Cuba,63882
Colorado Springs,38.8674,-104.7606,United States,623946
Colton,34.0538,-117.3254,United States,54828
Columbia,35.6225,-87.0478,United States,38577
Columbia,38.9478,-92.3258,United States,139945
Columbia,34.037,-80.9042,United States,566166
Columbus,32.51,-84.8771,United States,259160
Columbus,39.2091,-85.918,United States,58771
Columbus,39.986,-82.9852,United States,1528314
Columbus,33.5088,-88.4097,United States,31701
Comayagua,14.4604,-87.65,Honduras,71142
Comendador,18.876,-71.707,Dominican Republic,43894
Comilla,23.4704,91.17,Bangladesh,389411
Commerce City,39.8642,-104.8434,United States,55923
Como,45.81,9.08,Italy,250000
Comodoro Rivadavia,-45.87,-67.5,Argentina,140850
Compton,33.893,-118.2275,United States,97612
Conakry,9.5315,-13.6802,Guinea,1494000
Concepción,-23.4064,-57.4344,Paraguay,59118
Concepción,-36.83,-73.05,Chile,889725
Concepción del Uruguay,-32.48,-58.24,Argentina,67895
Concord,43.2305,-71.5595,United States,42935
Concord,35.3933,-80.636,United States,250186
Concord,37.9722,-122.0016,United States,654770
Concordia,-31.3896,-58.03,Argentina,145210
Concórdia,-27.23,-52.03,Brazil,55367
Conroe,30.322,-95.4807,United States,84378
Conselheiro Lafaiete,-20.67,-43.79,Brazil,111596
Constanța,44.2027,28.61,Romania,303399
Constantine,36.36,6.5999,Algeria,605179
Constitución,-35.3296,-72.42,Chile,37917
Conway,35.0753,-92.4695,United States,72894
Cookeville,36.1484,-85.5114,United States,48587
Coon Rapids,45.1755,-93.3094,United States,62656
Cooper City,26.0464,-80.2862,United States,35732
Coos Bay,43.3789,-124.233,United States,32030
Copiapó,-27.36,-70.34,Chile,129280
Coppell,32.9639,-96.9907,United States,41941
Copperas Cove,31.1192,-97.9141,United States,32706
Coquimbo,-29.9529,-71.3436,Chile,161317
Coral Gables,25.7037,-80.2715,United States,51095
Coral Springs,26.2701,-80.2592,United States,133037
Córdoba,18.9204,-96.92,Mexico,220563
Córdoba,-31.4,-64.1823,Argentina,1452000
Córdoba,37.88,-4.77,Spain,321376
Cork,51.8986,-8.4958,Ireland,188907
Cornwall,45.0171,-74.7333,Canada,48821
Coro,11.42,-69.68,Venezuela,195227
Coroatá,-4.1296,-44.15,Brazil,34129
Corona,33.862,-117.5644,United States,167836
Coronel,-37.03,-73.16,Chile,92940
Coronel Oviedo,-25.45,-56.44,Paraguay,88101
Corpus Christi,27.7173,-97.3822,United States,341435
Corrientes,-27.49,-58.81,Argentina,340823
Corum,40.52,34.95,Turkey,183418
Corumbá,-19.016,-57.65,Brazil,96520
Corvallis,44.5697,-123.278,United States,66441
Costa Mesa,33.6667,-117.9135,United States,113825
Cotabato,7.2169,124.2484,Philippines,279519
Cotonou,6.4,2.52,Benin,762000
Cottage Grove,44.8161,-92.9274,United States,36793
Cottbus,51.7704,14.33,Germany,105067
Cottonwood Heights,40.6137,-111.8144,United States,33996
Cotuí,19.059,-70.152,Dominican Republic,41641
Council Bluffs,41.2369,-95.8517,United States,62316
Courtenay,49.6833,-125,Canada,32793
Coventry,52.4204,-1.5,United Kingdom,388271
Covina,34.0903,-117.8817,United States,48462
Covington,39.0334,-84.5166,United States,40455
Cozumel,20.51,-86.95,Mexico,73934
Cradock,-32.1995,25.61,South Africa,32898
Craiova,44.3263,23.8259,Romania,304142
Cranbourne,-38.0996,145.2834,Australia,460491
Cranston,41.7658,-71.4858,United States,81202
Crateús,-5.1656,-40.666,Brazil,52933
Crato,-7.4639,-63.04,Brazil,273883
Crato,-7.2296,-39.42,Brazil,273883
Crestview,30.7479,-86.5785,United States,36880
Criciúma,-28.68,-49.39,Brazil,204217
Cristalina,-16.77,-47.61,Brazil,36531
Crotone,39.0833,17.1233,Italy,60010
Cruzeiro do Sul,-7.63,-72.67,Brazil,56862
Crystal Lake,42.2334,-88.3352,United States,40421
Cuamba,-14.7896,36.54,Mozambique,73268
Cuauhtémoc,28.4257,-106.8696,Mexico,90835
Cúcuta,7.92,-72.52,Colombia,722146
Cuddalore,11.7204,79.77,India,158569
Cuenca,-2.9,-79,Ecuador,286878
Cuernavaca,18.9211,-99.24,Mexico,834001
Cuiabá,-15.5696,-56.085,Brazil,806000
Culiacán,24.83,-107.38,Mexico,809000
Culver City,34.0058,-118.3968,United States,39283
Cumaná,10.45,-64.18,Venezuela,317603
Cumberland,39.6515,-78.7585,United States,49033
Cupertino,37.3168,-122.0465,United States,60777
Curanilahue,-37.48,-73.34,Chile,30611
Curepipe,-20.3162,57.5166,Mauritius,299975
Curicó,-34.98,-71.24,Chile,113711
Curitiba,-25.42,-49.32,Brazil,3084000
Curvelo,-18.7596,-44.43,Brazil,63954
Cusco,-13.525,-71.9722,Peru,361182
Cutler Bay,25.5765,-80.3357,United States,45101
Cutral Có,-38.94,-69.24,Argentina,47814
Cuttack,20.47,85.8899,India,580000
Cuyahoga Falls,41.1641,-81.5206,United States,49247
Cypress,33.8171,-118.0386,United States,49064
Da Lat,11.9304,108.42,Vietnam,256019
Da Nang,16.06,108.25,Vietnam,1000000
Daan,45.5,124.3,China,93297
Dabou,5.3204,-4.3899,Côte D’Ivoire,72913
Daegu,35.8668,128.607,"Korea, South",2460000
Daejeon,36.3355,127.425,"Korea, South",1468000
Dagupan,16.0479,120.3408,Philippines,163676
Dahuk,36.8667,43,Iraq,986000
Dakar,14.7158,-17.4731,Senegal,2604000
Dali,34.7953,109.9378,China,109696
Dali,25.7,100.18,China,156685
Dalian,38.9228,121.6298,China,3167000
Dallas,32.7937,-96.7662,United States,5733259
Daloa,6.89,-6.45,Côte D’Ivoire,255168
Dalton,34.7689,-84.9711,United States,86841
Daly City,37.6863,-122.4684,United States,107074
Daman,20.417,72.85,India,39737
Damanhûr,31.0504,30.47,Egypt,500000
Damascus,33.5,36.3,Syria,2466000
Damaturu,11.749,11.966,Nigeria,255895
Dana Point,33.4733,-117.6969,United States,33934
Danbury,41.4016,-73.471,United States,177177
Dandong,40.1436,124.3936,China,870000
Dania Beach,26.0594,-80.1641,United States,32030
Danjiangkou,32.52,111.5,China,92008
Danville,36.5831,-79.4088,United States,47135
Danville,37.8121,-121.9698,United States,44786
Danville,40.1423,-87.6114,United States,48518
Daphne,30.6291,-87.8872,United States,69065
Daqing,46.58,125,China,1693000
Dar es Salaam,-6.8,39.2683,Tanzania,2930000
Dar'a,32.625,36.105,Syria,146481
Darhan,49.6167,106.35,Mongolia,74738
Darnah,32.7648,22.6391,Libya,127974
Darwin,-12.4254,130.85,Australia,93080
Daşoguz,41.84,59.965,Turkmenistan,201424
Datong,40.08,113.3,China,1873000
Daugavpils,55.88,26.51,Latvia,111564
Davangere,14.47,75.92,India,503564
Davao,7.11,125.63,Philippines,1402000
Davenport,41.5563,-90.6052,United States,287413
David,8.4333,-82.4333,Panama,110037
Davie,26.079,-80.287,United States,105149
Davis,38.5552,-121.7365,United States,76524
Dawei,14.098,98.195,Burma,146212
Dayr az Zawr,35.3304,40.13,Syria,309141
Dayton,39.7797,-84.1998,United States,718169
Daytona Beach,29.1995,-81.0982,United States,68055
De Aar,-30.65,24,South Africa,32318
Dearborn,42.3127,-83.2129,United States,94491
Dearborn Heights,42.3164,-83.2769,United States,55758
Debre Birhan,9.6804,39.53,Ethiopia,65231
Debre Markos,10.34,37.72,Ethiopia,70758
Debrecen,47.5305,21.63,Hungary,231286
Decatur,34.573,-86.9905,United States,68816
Decatur,39.8556,-88.9337,United States,88997
Dédougou,12.455,-3.464,Burkina Faso,45341
Deer Park,29.6898,-95.1151,United States,33891
Deerfield Beach,26.305,-80.1278,United States,80571
Dehra Dun,30.3204,78.05,India,714223
DeKalb,41.9312,-88.7483,United States,67500
Del Rio,29.3706,-100.8798,United States,44424
DeLand,29.0226,-81.2875,United States,32506
Delano,35.767,-119.2637,United States,54471
Delaware,40.2866,-83.0747,United States,39267
Delhi,28.67,77.23,India,15926000
Delicias,28.2,-105.5,Mexico,114783
Delray Beach,26.455,-80.0905,United States,68749
Deltona,28.905,-81.2136,United States,194061
Dengzhou,32.6804,112.08,China,59338
Denizli,37.7704,29.08,Turkey,372344
Denow,38.2772,67.8872,Uzbekistan,217274
Denpasar,-8.65,115.22,Indonesia,732344
Denton,33.2176,-97.1421,United States,440146
Denver,39.7621,-104.8759,United States,2787266
Dera Ghazi Khan,30.0604,70.6351,Pakistan,236093
Dera Ismail Khan,31.829,70.8986,Pakistan,101616
Derbent,42.0578,48.2774,Russia,105965
Des Moines,47.3914,-122.3154,United States,31238
Des Moines,41.5725,-93.6104,United States,481222
Des Plaines,42.0344,-87.9008,United States,58193
Dese,11.13,39.63,Ethiopia,183802
Desert Hot Springs,33.9551,-116.543,United States,43730
DeSoto,32.5992,-96.8633,United States,53568
Detroit,42.3834,-83.1024,United States,3522206
Deva,45.8833,22.9167,Romania,67802
Deyang,31.1333,104.4,China,152194
Dezful,32.3804,48.47,Iran,315482
Dezhou,37.4504,116.3,China,379555
Dhaka,23.7231,90.4086,Bangladesh,12797394
Dhamar,14.5575,44.3875,Yemen,191259
Dhanbad,23.8004,86.42,India,1246000
Dhangarhi,28.695,80.593,Nepal,92294
Dhule,20.9,74.77,India,479073
Diamantina,-18.24,-43.61,Brazil,37343
Diamond Bar,33.9992,-117.8161,United States,56665
Dibrugarh,27.4833,94.9,India,166366
Dieppe,49.9337,1.0833,France,42461
Diffa,13.3171,12.6089,Niger,30988
Dijon,47.3304,5.03,France,169946
Dila,6.4104,38.31,Ethiopia,47021
Dili,-8.5594,125.5795,Timor-Leste,234331
Dimbokro,6.6505,-4.71,Côte D’Ivoire,67349
Dimitrovgrad,54.2504,49.56,Russia,132226
Dindigul,10.38,78,India,200797
Dingzhou,38.5004,115,China,152934
Diourbel,14.6604,-16.24,Senegal,148024
Dire Dawa,9.59,41.86,Ethiopia,252279
Divinópolis,-20.1495,-44.9,Brazil,193832
Divo,5.839,-5.36,Côte D’Ivoire,127867
Diyarbakır,37.9204,40.23,Turkey,644763
Djelfa,34.68,3.25,Algeria,170901
Djenné,13.9,-4.55,Mali,32944
Djibouti,11.595,43.148,Djibouti,923000
Djougou,9.7004,1.68,Benin,202810
Dnipro,48.48,35,Ukraine,1050000
Dobrich,43.5851,27.84,Bulgaria,94831
Dodoma,-6.1833,35.75,Tanzania,218269
Doha,25.2866,51.533,Qatar,1450000
Dondo,-19.6196,34.73,Mozambique,78648
Donetsk,48,37.83,Ukraine,988000
Đồng Hới,17.4833,106.6,Vietnam,189265
Dongguan,23.0489,113.7447,China,4528000
Doral,25.8149,-80.3565,United States,61130
Dori,14.034,-0.028,Burkina Faso,37806
Dortmund,51.53,7.45,Germany,588462
Dosso,13.05,3.2,Niger,49750
Dothan,31.2336,-85.4068,United States,71620
Douala,4.0604,9.71,Cameroon,1906000
Douglas,54.1504,-4.48,Isle Of Man,35854
Douglasville,33.7384,-84.7074,United States,33675
Douliou,23.7075,120.5439,Taiwan,106653
Douma,33.5833,36.4,Syria,496145
Dourados,-22.23,-54.81,Brazil,162202
Dover,51.1337,1.3,United Kingdom,36384
Dover,39.1603,-75.5203,United States,115352
Dover,43.1887,-70.8845,United States,92234
Downers Grove,41.7949,-88.017,United States,49540
Downey,33.9379,-118.1312,United States,113092
Drammen,59.7572,10.1907,Norway,90722
Draper,40.4956,-111.8607,United States,47710
Dresden,51.05,13.75,Germany,617515
Drobeta-Turnu Severin,44.6459,22.6659,Romania,106578
Drogheda,53.7193,-6.3478,Ireland,36533
Drohobych,49.3444,23.4994,Ukraine,124269
Drummondville,45.8833,-72.4834,Canada,59489
Dubai,25.23,55.28,United Arab Emirates,1379000
Dubbo,-32.26,148.5973,Australia,31574
Dublin,53.3331,-6.2489,Ireland,1059000
Dublin,37.7161,-121.8964,United States,60939
Dublin,40.1111,-83.1452,United States,47619
Dubrovnik,42.6609,18.0914,Croatia,36994
Dubuque,42.5007,-90.7067,United States,68573
Duisburg,51.43,6.75,Germany,1276757
Duitama,5.8305,-73.02,Colombia,101156
Duluth,46.7757,-92.1392,United States,120101
Dumfries,55.0671,-3.55,United Kingdom,31044
Dumyat,31.4204,31.82,Egypt,299459
Duncanville,32.646,-96.9127,United States,39487
Dund-Us,48.0166,91.6333,Mongolia,30500
Dundalk,54.0004,-6.4167,Ireland,38884
Dundee,56.4704,-3,United Kingdom,151592
Dunedin,-45.8854,170.491,New Zealand,117700
Dunedin,28.0328,-82.7866,United States,36545
Dunhua,43.3505,128.22,China,191870
Dunhuang,40.1427,94.662,China,140094
Dunwoody,33.9418,-84.3122,United States,49609
Durango,24.0311,-104.67,Mexico,457140
Durazno,-33.41,-56.51,Uruguay,34037
Durban,-29.865,30.98,South Africa,2729000
Durham,35.9797,-78.9037,United States,407575
Durrës,41.3178,19.4482,Albania,142432
Dushanbe,38.56,68.7739,Tajikistan,1086244
Düsseldorf,51.2204,6.78,Germany,1220000
Dyatkovo,53.5891,34.3392,Russia,33527
Dzaoudzi,-12.7871,45.275,Mayotte,32057
Dzerzhinsk,56.2504,43.46,Russia,256537
Eagan,44.817,-93.1638,United States,66627
Eagle Mountain,40.3137,-112.0114,United States,32204
Eagle Pass,28.7118,-100.4832,United States,54299
East Lansing,42.748,-84.4835,United States,48844
East Liverpool,40.6333,-80.5677,United States,30146
East London,-32.97,27.87,South Africa,338627
East Orange,40.7651,-74.2117,United States,65378
East Point,33.6696,-84.47,United States,35282
East Providence,41.8063,-71.3565,United States,47600
East Stroudsburg,41.0023,-75.1779,United States,56771
Eastpointe,42.4657,-82.9461,United States,32511
Eastvale,33.9617,-117.5802,United States,63211
Eau Claire,44.8203,-91.4951,United States,107068
Ebolowa,2.9,11.15,Cameroon,87875
Ed Dueim,13.9904,32.3,Sudan,87068
EdDamer,17.59,33.96,Sudan,103941
Edéa,3.8005,10.12,Cameroon,203149
Eden Prairie,44.8488,-93.4595,United States,64400
Edina,44.8914,-93.3602,United States,51958
Edinburg,26.319,-98.1607,United States,90280
Edinburgh,55.9483,-3.2191,United Kingdom,504966
Edirne,41.6704,26.57,Turkey,126470
Edmond,35.6689,-97.4159,United States,91950
Edmonds,47.8114,-122.3533,United States,42209
Edmonton,53.55,-113.5,Canada,1058000
Eger,47.895,20.383,Hungary,56647
Eindhoven,51.43,5.5,Netherlands,398053
Ekibastuz,51.73,75.3199,Kazakhstan,127868
El Arish,31.1249,33.8006,Egypt,178651
El Banco,9.0003,-73.98,Colombia,54522
El Bayadh,33.6904,1.01,Algeria,67413
El Cajon,32.8017,-116.9604,United States,103894
El Carmen de Bolívar,9.7204,-75.13,Colombia,60980
El Centro,32.7873,-115.5579,United States,112145
El Faiyum,29.31,30.84,Egypt,316772
El Fasher,13.63,25.35,Sudan,252609
El Giza,30.01,31.19,Egypt,2681863
El Goléa,30.5666,2.8833,Algeria,32049
El Jadida,33.2604,-8.51,Morocco,180470
El Kef,36.1826,8.7148,Tunisia,47979
El Kharga,25.44,30.55,Egypt,49991
El Manaqil,14.2504,32.98,Sudan,151827
El Mansura,31.0504,31.38,Egypt,600000
El Minya,28.09,30.75,Egypt,500000
El Mirage,33.5905,-112.3271,United States,35216
El Monte,34.074,-118.0291,United States,116109
El Obeid,13.1833,30.2167,Sudan,393311
El Oued,33.3704,6.86,Algeria,177497
El Paso,31.8479,-106.4309,United States,845674
El Progreso,14.85,-90.0167,Guatemala,147197
El Tigre,8.8903,-64.26,Venezuela,197440
Elâzığ,38.68,39.23,Turkey,271492
Elbasan,41.1215,20.0838,Albania,165010
Elbląg,54.19,19.4027,Poland,127558
Eldoret,0.52,35.27,Kenya,353381
Elgin,42.0385,-88.3229,United States,112456
Elista,46.3287,44.2087,Russia,106971
Elizabeth,40.6657,-74.1912,United States,130215
Elizabethtown,37.703,-85.8772,United States,77317
Ełk,53.8337,22.35,Poland,55769
Elk Grove,38.416,-121.384,United States,171844
Elk Grove Village,42.0062,-87.9929,United States,32776
Elkhart,41.6913,-85.9628,United States,148131
Elmhurst,41.8973,-87.9432,United States,46662
Elmira,42.0938,-76.8097,United States,64664
Elyria,41.3761,-82.1063,United States,53883
Embu,-0.5196,37.45,Kenya,58620
Emden,53.3667,7.2167,Germany,51526
En Nuhud,12.6904,28.42,Sudan,108008
Encarnación,-27.3472,-55.8739,Paraguay,357119
Encinitas,33.0492,-117.2613,United States,63184
Ende,-8.8623,121.6489,Indonesia,77205
Engels,51.5004,46.12,Russia,196011
Englewood,39.6468,-104.9942,United States,34407
Enid,36.4061,-97.8701,United States,48325
Ensenada,31.87,-116.62,Mexico,256565
Entebbe,0.0604,32.46,Uganda,175128
Enterprise,31.3276,-85.8459,United States,38737
Enugu,6.45,7.5,Nigeria,688862
Er Rachidia,31.9404,-4.45,Morocco,228489
Erdenet,49.0533,104.1183,Mongolia,79647
Erechim,-27.63,-52.27,Brazil,96087
Ereğli,37.5063,34.0517,Turkey,92117
Erfurt,50.9701,11.03,Germany,203254
Ergun Zuoqi,50.7833,121.5167,China,42849
Erie,42.1168,-80.0733,United States,188079
Erzincan,39.7526,39.4928,Turkey,129407
Erzurum,39.9204,41.29,Turkey,420691
Esbjerg,55.467,8.45,Denmark,72205
Escondido,33.1347,-117.0722,United States,151969
Escuintla,15.33,-92.63,Mexico,107638
Escuintla,14.3004,-90.78,Guatemala,107638
Esik,43.3691,77.4438,Kazakhstan,35319
Eskişehir,39.795,30.53,Turkey,514869
Esmeraldas,0.9304,-79.67,Ecuador,173101
Essen,51.45,7.0166,Germany,1742135
Estância,-11.2696,-37.45,Brazil,55654
Estelí,13.09,-86.36,Nicaragua,107839
Estero,26.4277,-81.7951,United States,33048
Etawah,26.7855,79.015,India,257448
Euclid,41.5904,-81.5188,United States,47201
Eugene,44.0563,-123.1173,United States,267568
Euless,32.8508,-97.0798,United States,55174
Eureka,40.7941,-124.1568,United States,45010
Evanston,42.0463,-87.6942,United States,74756
Evansville,37.9882,-87.5339,United States,232285
Everett,47.9524,-122.167,United States,110079
Everett,42.4064,-71.0545,United States,46324
Évora,38.56,-7.906,Portugal,55620
Exeter,50.7004,-3.53,United Kingdom,113118
Fada Ngourma,12.055,0.361,Burkina Faso,33910
Fair Lawn,40.9359,-74.1177,United States,33710
Fairbanks,64.8353,-147.6533,United States,64732
Fairborn,39.801,-84.0094,United States,33541
Fairfield,38.2594,-122.0319,United States,147582
Fairfield,39.3301,-84.5405,United States,42566
Fairmont,39.4768,-80.1491,United States,32988
Faisalabad,31.41,73.11,Pakistan,2617000
Faizabad,26.7504,82.17,India,153047
Fall River,41.7136,-71.1015,United States,89420
Falun,60.613,15.647,Sweden,36477
Farah,32.3917,62.0968,Afghanistan,73647
Fargo,46.8653,-96.8292,United States,204820
Fargona,40.39,71.78,Uzbekistan,750000
Faridabad,28.4333,77.3167,India,1394000
Farmers Branch,32.9272,-96.8804,United States,37088
Farmington,36.7555,-108.1823,United States,52555
Farmington,37.7821,-90.4287,United States,44664
Farmington Hills,42.486,-83.3771,United States,81050
Faro,37.0171,-7.9333,Portugal,41355
Fasa,28.9718,53.6715,Iran,124458
Fatehpur,25.8804,80.8,India,166480
Fayetteville,35.0846,-78.9776,United States,324700
Fayetteville,36.0713,-94.166,United States,341890
Federal Way,47.309,-122.3359,United States,96690
Feira de Santana,-12.25,-38.97,Brazil,481911
Fengcheng,28.2004,115.77,China,61469
Fengjie,31.0504,109.5167,China,49168
Fengzhen,40.4547,113.1443,China,99174
Ferkessédougou,9.6004,-5.2,Côte D’Ivoire,62008
Fernandópolis,-20.2696,-50.26,Brazil,61931
Ferrara,44.8504,11.6099,Italy,130992
Ferreñafe,-6.63,-79.8,Peru,50184
Feyzabad,37.1298,70.5792,Afghanistan,64704
Fez,34.0546,-5.0004,Morocco,1002000
Fianarantsoa,-21.4333,47.0833,Madagascar,184184
Fier,40.73,19.573,Albania,82297
Findlay,41.0467,-83.6379,United States,48582
Firozabad,27.15,78.3949,India,306409
Fishers,39.9589,-85.967,United States,91832
Fitchburg,42.5912,-71.8156,United States,40793
Flagstaff,35.1872,-111.6195,United States,78628
Flensburg,54.7837,9.4333,Germany,97930
Flint,43.0236,-83.6922,United States,335354
Florence,43.78,11.25,Italy,1500000
Florence,34.83,-87.6658,United States,78112
Florence,34.1785,-79.7857,United States,91311
Florence,38.99,-84.647,United States,32305
Florencia,1.6104,-75.62,Colombia,130337
Flores,16.9337,-89.8833,Guatemala,38035
Floriano,-6.7696,-43.03,Brazil,48587
Florianópolis,-27.58,-48.52,Brazil,1023000
Florida,-34.099,-56.215,Uruguay,32234
Florissant,38.7996,-90.3269,United States,51443
Flower Mound,33.0344,-97.1147,United States,76681
Focșani,45.6966,27.1865,Romania,105112
Foggia,41.4605,15.56,Italy,155203
Foley,30.3987,-87.6646,United States,33113
Folsom,38.6669,-121.1422,United States,78038
Fond du Lac,43.772,-88.4396,United States,54629
Fontana,34.0968,-117.4599,United States,211815
Formiga,-20.46,-45.43,Brazil,56404
Formosa,-26.1728,-58.1828,Argentina,221383
Formosa,-15.5395,-47.34,Brazil,81232
Forney,32.7447,-96.4519,United States,37521
Fort Collins,40.5479,-105.0658,United States,303184
Fort Lauderdale,26.1412,-80.1464,United States,180072
Fort Lee,40.8509,-73.9712,United States,37907
Fort Myers,26.6195,-81.8302,United States,79943
Fort Pierce,27.4256,-80.3425,United States,45581
Fort Portal,0.671,30.275,Uganda,42670
Fort Smith,35.3494,-94.3695,United States,125562
Fort Wayne,41.0885,-85.1436,United States,328564
Fort Worth,32.7814,-97.3473,United States,874168
Fort-de-France,14.6104,-61.08,Martinique,253995
Fortaleza,-3.75,-38.58,Brazil,3602319
Foshan,23.0301,113.12,China,943000
Foster City,37.5553,-122.2659,United States,34412
Foumban,5.7304,10.9,Cameroon,92673
Fountain Valley,33.7105,-117.9514,United States,56313
Foz do Iguaçu,-25.5235,-54.53,Brazil,440455
Franca,-20.53,-47.39,Brazil,305041
Franceville,-1.6333,13.5833,Gabon,42967
Francistown,-21.17,27.5,Botswana,89979
Frankfort,38.1924,-84.8644,United States,38664
Frankfurt,50.1,8.675,Germany,2895000
Franklin,42.8854,-88.0104,United States,36143
Franklin,41.1101,-74.5886,United States,33532
Franklin,35.9214,-86.8524,United States,78321
Frederick,39.4335,-77.4157,United States,154972
Fredericksburg,38.2992,-77.4872,United States,164976
Fredericton,45.95,-66.6333,Canada,52337
Freeport,40.6515,-73.585,United States,43508
Freetown,8.47,-13.2342,Sierra Leone,827000
Freiburg,48.0004,7.8699,Germany,254889
Fremont,37.5265,-121.9852,United States,234962
Fresnillo,23.1704,-102.86,Mexico,105488
Fresno,36.7834,-119.7941,United States,698021
Fribourg,46.8,7.15,Switzerland,32827
Friendswood,29.5112,-95.1979,United States,39839
Frisco,33.1553,-96.8218,United States,177286
Frolovo,49.7722,43.6518,Russia,40882
Frutal,-20.03,-48.94,Brazil,40931
Fuan,27.0704,119.62,China,92470
Fujin,47.2704,132.02,China,89442
Fukui,36.0704,136.22,Japan,248707
Fukuoka,33.595,130.41,Japan,2792000
Fukushima,37.74,140.47,Japan,294237
Fullerton,33.8841,-117.9279,United States,140392
Funchal,32.65,-16.88,Portugal,204767
Funtua,11.5204,7.32,Nigeria,180475
Fürth,49.47,11,Germany,237844
Fushun,41.8654,123.87,China,1470000
Fuxin,42.0105,121.66,China,770000
Fuyang,32.9004,115.82,China,170023
Fuyang,30.0533,119.9519,China,771000
Fuyu,45.1804,124.82,China,356905
Fuzhou,26.08,119.3,China,2606000
Gaalkacyo,6.77,47.43,Somalia,61200
Gabès,33.9004,10.1,Tunisia,219517
Gaborone,-24.6463,25.9119,Botswana,208411
Gadsden,34.009,-86.0156,United States,61656
Gafsa,34.4204,8.78,Tunisia,126803
Gagnoa,6.1504,-5.88,Côte D’Ivoire,123184
Gahanna,40.0251,-82.8637,United States,35297
Gainesville,29.6808,-82.3455,United States,199695
Gainesville,34.2901,-83.8301,United States,156248
Gaithersburg,39.1347,-77.213,United States,68710
Galați,45.4559,28.0459,Romania,311156
Galesburg,40.9506,-90.3763,United States,34406
Gallatin,36.3783,-86.4696,United States,37351
Galle,6.03,80.24,Sri Lanka,99478
Galveston,29.2487,-94.891,United States,46561
Galway,53.2724,-9.0488,Ireland,75594
Ganca,40.685,46.35,Azerbaijan,303268
Gandajika,-6.7396,23.96,Congo (Kinshasa),154425
Gandhinagar,23.3004,72.6399,India,195891
Gangneung,37.7559,128.8962,"Korea, South",180611
Gangtok,27.3333,88.6166,India,77900
Gannan,47.9204,123.51,China,59239
Ganzhou,25.92,114.95,China,1500000
Gao,16.2666,-0.05,Mali,116967
Garanhuns,-8.89,-36.5,Brazil,110085
Garça,-22.22,-49.66,Brazil,41302
Garden City,37.9755,-100.8529,United States,30206
Garden Grove,33.7787,-117.9601,United States,174226
Gardena,33.8944,-118.3073,United States,60224
Gardiz,33.6001,69.2146,Afghanistan,103601
Garfield,40.8791,-74.1085,United States,32393
Garissa,-0.4396,39.67,Kenya,67861
Garland,32.91,-96.6305,United States,238002
Garoua,9.3,13.39,Cameroon,436899
Gary,41.5906,-87.3472,United States,76008
Garzón,2.2104,-75.65,Colombia,56603
Gashua,12.8705,11.04,Nigeria,125817
Gastonia,35.2494,-81.1855,United States,180974
Gatchina,59.5707,30.1333,Russia,90486
Gävle,60.667,17.1666,Sweden,68635
Gay,51.4747,58.4543,Russia,41619
Gaya,11.8882,3.4467,Niger,33051
Gaya,24.8,85,India,423692
Gaziantep,37.075,37.385,Turkey,1044000
Gbadolite,4.2904,21.0199,Congo (Kinshasa),50493
Gbarnga,7.0104,-9.49,Liberia,45835
Gdańsk,54.36,18.64,Poland,740000
Gdynia,54.5204,18.53,Poland,314664
Gedaref,14.04,35.38,Sudan,201282
Geelong,-38.1675,144.3956,Australia,160991
Gejiu,23.38,103.1501,China,149105
Gelendzhik,44.5748,38.0644,Russia,55508
Gemena,3.26,19.77,Congo (Kinshasa),198056
Geneina,13.45,22.44,Sudan,162981
General Pico,-35.6596,-63.77,Argentina,57029
General Roca,-39.02,-67.61,Argentina,73212
General Santos,6.1108,125.1747,Philippines,950530
Geneva,46.21,6.14,Switzerland,1240000
Genoa,44.41,8.93,Italy,647497
Gent,51.03,3.7,Belgium,444336
George,-33.95,22.45,South Africa,174582
George Town,5.4136,100.3294,Malaysia,2500000
Georgetown,6.802,-58.167,Guyana,264350
Georgetown,30.6664,-97.6937,United States,70685
Georgetown,38.2253,-84.5481,United States,35586
Georgievsk,44.1599,43.4699,Russia,72649
Gera,50.8704,12.07,Germany,104659
Germantown,35.083,-89.7824,United States,39141
Ghardaia,32.49,3.67,Algeria,125480
Gharyan,32.1704,13.02,Libya,146810
Ghaziabad,28.6604,77.4084,India,1341000
Ghazni,33.5633,68.4178,Afghanistan,141000
Gibraltar,36.1324,-5.3781,Gibraltar,187083
Gießen,50.5837,8.65,Germany,82358
Gifu,35.4231,136.7628,Japan,412895
Gijón,43.53,-5.67,Spain,335972
Gilbert,33.3103,-111.7463,United States,242354
Gilgit,35.9171,74.3,Pakistan,216760
Gillette,44.2779,-105.5004,United States,34378
Gilroy,37.0047,-121.5843,United States,116235
Gimbi,9.167,35.8333,Ethiopia,31809
Girardot,4.31,-74.81,Colombia,130289
Giresun,40.913,38.39,Turkey,98864
Girga,26.3304,31.88,Egypt,128250
Gisborne,-38.6633,178.0181,New Zealand,34300
Gisenyi,-1.6847,29.2629,Rwanda,83623
Gitarama,-2.0696,29.76,Rwanda,87613
Giurgiu,43.93,25.84,Romania,69067
Giyon,8.5304,37.97,Ethiopia,114534
Gladstone,-23.8533,151.2467,Australia,30489
Glasgow,55.8744,-4.2507,United Kingdom,1160000
Glazov,58.1232,52.6288,Russia,100676
Glendale,34.1818,-118.2468,United States,203054
Glendale,33.5796,-112.2258,United States,246709
Glendale Heights,41.9196,-88.0784,United States,34058
Glendora,34.1449,-117.8468,United States,52445
Glens Falls,43.3109,-73.6459,United States,64287
Glenview,42.0825,-87.8216,United States,47659
Gliwice,50.3304,18.67,Poland,507670
Gloucester,42.626,-70.6897,United States,30172
Goba,7.01,39.97,Ethiopia,34369
Gode,5.95,43.45,Ethiopia,75000
Gogrial,8.5337,28.1167,South Sudan,50065
Goiana,-7.5596,-35,Brazil,71549
Goianésia,-15.3096,-49.13,Brazil,47883
Goiânia,-16.72,-49.3,Brazil,2022000
Gold Coast,-28.0815,153.4482,Australia,527660
Goldsboro,35.3777,-77.972,United States,58972
Goleta,34.436,-119.8596,United States,31116
Golmud,36.4166,94.8833,China,107092
Goma,-1.6788,29.2218,Congo (Kinshasa),144124
Gombe,10.2904,11.17,Nigeria,270366
Gómez Palacio,25.5701,-103.5,Mexico,399328
Gonaïves,19.4504,-72.6832,Haiti,166678
Gonbad-e Kavus,37.2518,55.1715,Iran,159982
Gondar,12.61,37.46,Ethiopia,156230
Goodyear,33.2614,-112.3622,United States,79858
Goose Creek,32.9922,-80.0052,United States,42619
Gorakhpur,26.7504,83.38,India,674246
Gorgan,36.8303,54.48,Iran,281023
Gorno Altaysk,51.9613,85.9577,Russia,59868
Goroka,-6.0833,145.3855,Papua New Guinea,39699
Gorontalo,0.55,123.07,Indonesia,365497
Goshen,41.5741,-85.8304,United States,33220
Göteborg,57.75,12,Sweden,537797
Göttingen,51.5204,9.92,Germany,139419
Goulimine,28.98,-10.07,Morocco,115267
Governador Valadares,-18.87,-41.97,Brazil,250878
Goya,-29.14,-59.27,Argentina,72304
Goyang,37.6527,126.8372,"Korea, South",903000
Goycay,40.6534,47.7406,Azerbaijan,35348
Graaff Reinet,-32.3,24.54,South Africa,62896
Grahamstown,-33.2996,26.52,South Africa,91548
Grajau,-5.81,-46.15,Brazil,30217
Granada,11.9337,-85.95,Nicaragua,105219
Granada,37.165,-3.585,Spain,388290
Granbury,32.4483,-97.7685,United States,35138
Grand Bassam,5.2004,-3.75,Côte D’Ivoire,73772
Grand Forks,47.9223,-97.0887,United States,66159
Grand Island,40.9214,-98.3584,United States,53424
Grand Junction,39.0878,-108.5673,United States,136688
Grand Prairie,55.1666,-118.8,Canada,41462
Grand Prairie,32.6869,-97.0209,United States,193837
Grand Rapids,42.9615,-85.6557,United States,602694
Grants Pass,42.4333,-123.3317,United States,54973
Grapevine,32.9343,-97.0744,United States,53982
Grass Valley,39.2237,-121.0521,United States,34650
Graz,47.0778,15.41,Austria,263234
Great Falls,47.5022,-111.2995,United States,65624
Greeley,40.415,-104.7696,United States,133750
Green Bay,44.515,-87.9896,United States,208625
Greenfield,42.9619,-88.0051,United States,36827
Greenock,55.9333,-4.75,United Kingdom,74635
Greensboro,36.0956,-79.8269,United States,335588
Greenville,35.5957,-77.3764,United States,128385
Greenville,33.385,-91.0514,United States,31243
Greenville,34.8363,-82.365,United States,467894
Greenwood,39.6019,-86.1073,United States,57375
Greenwood,34.1944,-82.1543,United States,42174
Greer,34.9346,-82.2333,United States,30899
Grenoble,45.1804,5.72,France,388574
Gresham,45.5023,-122.4414,United States,111053
Groningen,53.2204,6.58,Netherlands,216688
Grove City,39.866,-83.0692,United States,41022
Groznyy,43.3187,45.6987,Russia,226100
Grudziądz,53.4804,18.75,Poland,102443
Gryazi,52.4948,39.9343,Russia,47413
Guadalajara,20.67,-103.33,Mexico,4198000
Guadalajara,40.6337,-3.1666,Spain,72850
Guaira,-24.09,-54.27,Brazil,36426
Guajara-Miram,-10.8,-65.3499,Brazil,69586
Gualeguay,-33.15,-59.34,Argentina,33120
Gualeguaychú,-33.02,-58.52,Argentina,78676
Guamúchil,25.4704,-108.09,Mexico,62695
Guanajuato,21.0204,-101.28,Mexico,112200
Guanambi,-14.2296,-42.79,Brazil,58877
Guanare,9.05,-69.75,Venezuela,151642
Guangshui,31.6204,114,China,154771
Guangyuan,32.43,105.87,China,437435
Guangzhou,23.145,113.325,China,8829000
Guantánamo,20.1453,-75.2061,Cuba,272801
Guarapuava,-25.38,-51.48,Brazil,150850
Guaratinguetá,-22.82,-45.19,Brazil,203580
Guarda,40.541,-7.262,Portugal,32111
Guasave,25.5705,-108.47,Mexico,96860
Guasdualito,7.24,-70.74,Venezuela,30860
Guatemala,14.6211,-90.527,Guatemala,1024000
Guaxupé,-21.29,-46.71,Brazil,47889
Guayaquil,-2.22,-79.92,Ecuador,2514000
Guayaramerín,-10.83,-65.41,Bolivia,36008
Guaymas,27.93,-110.89,Mexico,103449
Gubakha,58.8691,57.5887,Russia,31424
Gueckedou,8.554,-10.151,Guinea,221715
Guelma,36.466,7.428,Algeria,123590
Guider,9.9304,13.94,Cameroon,84647
Guiglo,6.5505,-7.49,Côte D’Ivoire,39134
Guilin,25.28,110.28,China,987000
Güines,22.8361,-82.028,Cuba,68935
Guiyang,26.58,106.72,China,3662000
Gujranwala,32.1604,74.185,Pakistan,1513000
Gujrat,32.58,74.08,Pakistan,301506
Gulbarga,17.35,76.82,India,483615
Gulfport,30.4271,-89.0703,United States,221348
Guliston,40.4957,68.7907,Uzbekistan,95520
Gulu,2.78,32.28,Uganda,146858
Gümüşhane,40.464,39.484,Turkey,32250
Gunsan,35.9818,126.716,"Korea, South",244080
Guntur,16.33,80.45,India,530577
Gurgaon,28.45,77.02,India,197340
Gurnee,42.3708,-87.9392,United States,30767
Gurupi,-11.7196,-49.06,Brazil,64789
Guryevsk,54.2981,85.9377,Russia,38757
Gusau,12.1704,6.66,Nigeria,226857
Guwahati,26.16,91.77,India,983000
Gwadar,25.139,62.3286,Pakistan,51901
Gwalior,26.23,78.1801,India,978000
Gwangju,35.171,126.9104,"Korea, South",1440000
Gweru,-19.45,29.82,Zimbabwe,183358
Gyeongju,35.8428,129.2117,"Korea, South",155237
Győr,47.7004,17.63,Hungary,136081
Gyumri,40.7894,43.8475,Armenia,148381
Gyzlarbat,38.9755,56.2778,Turkmenistan,48458
Ha Giang,22.8337,104.9833,Vietnam,38362
Hà Tĩnh,18.3338,105.9,Vietnam,165396
Haarlem,52.3804,4.63,Netherlands,349957
Hachinohe,40.51,141.54,Japan,239046
Hachiōji,35.6577,139.3261,Japan,579399
Hackensack,40.889,-74.0461,United States,45248
Haeju,38.0394,125.7144,"Korea, North",224231
Hafar al Batin,28.4337,45.9601,Saudi Arabia,249194
Hagere Hiywet,8.9804,37.85,Ethiopia,43920
Hagerstown,39.6401,-77.7217,United States,185704
Hai Duong,20.942,106.331,Vietnam,58030
Haifa,32.8204,34.98,Palestine,1011000
Haikou,20.05,110.32,China,2046189
Hail,27.5236,41.7001,Saudi Arabia,385257
Hailar,49.2,119.7,China,231171
Hailun,47.4504,126.93,China,109881
Haiphong,20.83,106.6801,Vietnam,1969000
Hajjah,15.6917,43.6021,Yemen,208287
Hakkâri,37.5744,43.7408,Turkey,77699
Hakodate,41.795,140.74,Japan,302984
Haldia,22.0257,88.0583,India,200762
Half Way Tree,18.0333,-76.8,Jamaica,96494
Halifax,44.65,-63.6,Canada,359111
Hallandale Beach,25.9854,-80.1423,United States,39831
Halmstad,56.6718,12.8556,Sweden,55657
Haltom City,32.8176,-97.2707,United States,44417
Hamadan,34.796,48.515,Iran,528256
Hamah,35.1503,36.73,Syria,460602
Hamamatsu,34.7181,137.7327,Japan,977023
Hamburg,53.55,10,Germany,1757000
Hämeenlinna,60.997,24.472,Finland,47261
Hamhung,39.9101,127.5454,"Korea, North",773000
Hami,42.827,93.515,China,300848
Hamilton,-37.7783,175.2896,New Zealand,148200
Hamilton,32.2942,-64.7839,Bermuda,52320
Hamilton,43.25,-79.83,Canada,721053
Hamilton,39.3938,-84.5653,United States,62092
Hammond,30.506,-90.456,United States,69180
Hammond,41.617,-87.4908,United States,76618
Hampton,37.0551,-76.3629,United States,134669
Hancheng,35.4704,110.43,China,222135
Handan,36.58,114.48,China,1631000
Hanford,36.326,-119.654,United States,92066
Hanggin Houqi,40.8847,107.14,China,39954
Hangu,39.232,117.777,China,332793
Hangzhou,30.25,120.17,China,3007000
Hania,35.5122,24.0156,Greece,78728
Hannover,52.367,9.7167,Germany,722490
Hanoi,21.0333,105.85,Vietnam,4378000
Hanover,39.8117,-76.9835,United States,67679
Hanover Park,41.9819,-88.1447,United States,37982
Hanzhong,33.13,107.03,China,145986
Haora,22.5804,88.3299,India,4841638
Hapur,28.7437,77.7628,India,242920
Harar,9.32,42.15,Ethiopia,174994
Harare,-17.8178,31.0447,Zimbabwe,1572000
Harbin,45.75,126.65,China,3621000
Harker Heights,31.0572,-97.6445,United States,31075
Harlingen,26.1917,-97.6977,United States,136968
Harper,4.3754,-7.717,Liberia,32661
Harrisburg,40.2752,-76.8843,United States,441580
Harrisonburg,38.4362,-78.8735,United States,74023
Hartford,41.7661,-72.6834,United States,914751
Hasselt,50.964,5.484,Belgium,69222
Hat Yai,6.9964,100.4714,Thailand,317954
Hatay,36.2304,36.12,Turkey,305564
Hathras,27.6,78.05,India,126882
Hato Mayor,18.764,-69.257,Dominican Republic,35999
Hattiesburg,31.3072,-89.3168,United States,81036
Haugesund,59.4119,5.2775,Norway,40321
Havana,23.132,-82.3642,Cuba,2174000
Haverhill,42.7838,-71.0871,United States,63639
Hawthorne,33.9147,-118.3476,United States,87854
Hayward,37.6328,-122.0772,United States,160500
Hazleton,40.9504,-75.9724,United States,55444
Hebi,35.9504,114.22,China,244662
Hechi,23.0965,109.6091,China,3830000
Hefei,31.85,117.28,China,2035000
Hegang,47.4,130.37,China,743307
Heidelberg,49.42,8.7,Germany,426590
Heihe,50.25,127.446,China,109427
Helena,46.5964,-112.0197,United States,50227
Helong,42.5348,129.0044,China,85756
Helsingborg,56.0505,12.7,Sweden,91304
Helsinki,60.1756,24.9341,Finland,1115000
Hemet,33.7341,-116.9969,United States,176892
Hempstead,40.7043,-73.6193,United States,55806
Henderson,36.0145,-115.0362,United States,302539
Hendersonville,36.3063,-86.5997,United States,57517
Hengshui,37.72,115.7,China,456356
Hengyang,26.88,112.59,China,1016000
Herat,34.33,62.17,Afghanistan,481009
Hermosillo,29.0989,-110.9541,Mexico,595811
Herriman,40.4898,-112.0169,United States,39224
Hesperia,34.3974,-117.3144,United States,94859
Hetauda,27.4167,85.0334,Nepal,232334
Heyuan,23.7304,114.68,China,330961
Heze,35.23,115.45,China,1338000
Hialeah,25.8696,-80.3045,United States,239673
Hickory,35.7427,-81.3233,United States,215353
Hidalgo del Parral,26.9334,-105.6666,Mexico,103378
High Point,35.9902,-79.9938,United States,177874
Highland,34.1113,-117.1653,United States,55342
Higuey,18.616,-68.708,Dominican Republic,123787
Hilliard,40.0352,-83.1577,United States,35939
Hillsboro,45.5271,-122.9358,United States,106894
Hilton Head Island,32.1896,-80.7499,United States,74500
Hims,34.73,36.72,Syria,1005000
Hindupur,13.7804,77.49,India,168312
Hinesville,31.8247,-81.6135,United States,51001
Hinthada,17.6483,95.4679,Burma,180728
Hirosaki,40.57,140.47,Japan,174972
Hiroshima,34.3878,132.4429,Japan,2045000
Hisar,29.17,75.725,India,544829
Hlotse,-28.878,28.056,Lesotho,47675
Ho,6.6004,0.47,Ghana,93044
Ho Chi Minh City,10.78,106.695,Vietnam,5314000
Hoa Binh,20.8137,105.3383,Vietnam,105260
Hobart,-42.85,147.295,Australia,80870
Hobbs,32.7282,-103.16,United States,40614
Hoboken,40.7453,-74.0279,United States,55131
Hof,50.317,11.9167,Germany,56153
Hoffman Estates,42.0638,-88.1463,United States,51567
Hohhot,40.82,111.66,China,1726000
Holguín,20.8872,-76.2631,Cuba,319102
Holladay,40.6599,-111.8226,United States,30709
Holland,42.7677,-86.0984,United States,100885
Hollister,36.8563,-121.3981,United States,46183
Holly Springs,35.6542,-78.8402,United States,35223
Hollywood,26.0293,-80.1678,United States,153627
Holyoke,42.2126,-72.6411,United States,40341
Homestead,25.4664,-80.4472,United States,69907
Homyel,52.43,31,Belarus,480951
Hon Quan,11.6504,106.6,Vietnam,40279
Honda,5.1903,-74.75,Colombia,35469
Hong Gai,20.9604,107.1,Vietnam,172915
Hong Kong,22.305,114.185,Hong Kong,7206000
Honiara,-9.438,159.9498,Solomon Islands,76328
Honolulu,21.3294,-157.846,United States,833671
Hoover,33.3763,-86.8058,United States,84920
Hopkinsville,36.8381,-87.4777,United States,31681
Horlivka,48.2996,38.0547,Ukraine,396885
Hosaina,7.5504,37.85,Ethiopia,89300
Hoshiarpur,31.52,75.98,India,158142
Hospet,15.2804,76.375,India,286007
Hot Springs,34.4902,-93.0498,United States,57819
Hotan,37.0997,79.9269,China,261730
Houma,35.62,111.21,China,102400
Houma,29.5799,-90.7058,United States,142969
Houston,29.7868,-95.3905,United States,5446468
Hradec Králové,50.206,15.812,Czechia,95195
Hrodna,53.6779,23.8341,Belarus,317365
Hsinchu,24.8168,120.9767,Taiwan,750000
Hua Hin,12.5697,99.9443,Thailand,50456
Huacho,-11.11,-77.6199,Peru,80474
Huaibei,33.9504,116.75,China,913000
Huainan,32.63,116.98,China,1451000
Huaiyin,33.58,119.03,China,1264000
Huajuapan de León,17.8104,-97.79,Mexico,47844
Hualien,23.9837,121.6,Taiwan,350468
Huamachuco,-7.81,-78.0499,Peru,30835
Huambo,-12.75,15.76,Angola,1100000
Huancavelica,-12.79,-74.99,Peru,44388
Huancayo,-12.08,-75.2,Peru,412733
Huanghua,38.3704,117.33,China,120000
Huangshi,30.22,115.1,China,688090
Huangyan,28.65,121.25,China,198713
Huanren,41.2563,125.346,China,116621
Huánuco,-9.92,-76.24,Peru,158145
Huaraz,-9.53,-77.53,Peru,86934
Huatabampo,26.8304,-109.63,Mexico,30426
Huaura,-11.06,-77.6,Peru,40400
Huber Heights,39.8595,-84.113,United States,37986
Hubli,15.36,75.125,India,890000
Hue,16.47,107.58,Vietnam,950000
Huehuetenango,15.3204,-91.47,Guatemala,85992
Huelva,37.2504,-6.9299,Spain,144174
Huinan,42.6229,126.2614,China,66315
Huizhou,23.08,114.4,China,289201
Hulan Ergi,47.21,123.61,China,289999
Hulin,45.769,132.9922,China,42559
Hungnam,39.8231,127.6232,"Korea, North",751322
Huntersville,35.4057,-80.873,United States,56212
Huntington,38.4109,-82.4344,United States,194155
Huntington Beach,33.696,-118.0025,United States,201874
Huntington Park,33.98,-118.2167,United States,58822
Huntsville,30.705,-95.5545,United States,39542
Huntsville,34.6989,-86.6414,United States,309716
Hurghada,27.23,33.83,Egypt,157204
Hurst,32.8353,-97.1808,United States,39051
Hutchinson,38.0671,-97.9081,United States,42940
Huzhou,30.8704,120.1,China,1231000
Hwange,-18.37,26.5,Zimbabwe,33989
Hyderabad,25.38,68.375,Pakistan,1459000
Hyderabad,17.4,78.48,India,6376000
Hyeson,41.3927,128.1927,"Korea, North",227461
I-n-Salah,27.2166,2.4666,Algeria,49223
Iași,47.1683,27.5749,Romania,325914
Ibadan,7.38,3.93,Nigeria,2628000
Ibagué,4.4389,-75.2322,Colombia,421685
Ibarra,0.3604,-78.13,Ecuador,146741
Ibb,13.9759,44.1709,Yemen,234837
Ibri,23.2254,56.517,Oman,101640
Ica,-14.068,-75.7255,Peru,279420
Idah,7.1104,6.7399,Nigeria,75087
Idaho Falls,43.4868,-112.0363,United States,97548
Idlib,35.9297,36.6317,Syria,128840
Ifakara,-8.1296,36.68,Tanzania,49528
Ife,7.4804,4.56,Nigeria,482365
Iganga,0.6092,33.4686,Uganda,45024
Iguala,18.37,-99.54,Mexico,112106
Iguatu,-6.36,-39.3,Brazil,70380
Ijebu Ode,6.8204,3.92,Nigeria,209175
Ijuí,-28.3895,-53.9199,Brazil,71202
Ikare,7.5304,5.76,Nigeria,1099931
Iksan,35.941,126.9454,"Korea, South",283501
Ilam,33.6304,46.43,Iran,152894
Ilebo,-4.3196,20.61,Congo (Kinshasa),107093
Ilhéus,-14.78,-39.05,Brazil,230622
Iligan,8.1712,124.2154,Philippines,464599
Illichivsk,46.3,30.6666,Ukraine,54102
Ilo,-17.64,-71.34,Peru,53476
Iloilo,10.705,122.545,Philippines,387681
Ilorin,8.49,4.55,Nigeria,771000
Imbituba,-28.2296,-48.66,Brazil,43450
Imperatriz,-5.52,-47.49,Brazil,218106
Imphal,24.8,93.95,India,264986
Incheon,37.4761,126.6422,"Korea, South",2550000
Independence,39.0871,-94.3503,United States,117306
Indian Trail,35.0699,-80.6453,United States,38980
Indianapolis,39.7771,-86.1458,United States,1564699
Indio,33.7346,-116.2346,United States,408097
Indore,22.7151,75.865,India,2026000
Indramayu,-6.3356,108.319,Indonesia,123263
Inglewood,33.9566,-118.3444,United States,110598
Ingolstadt,48.7704,11.45,Germany,163325
Inhambane,-23.858,35.3398,Mozambique,115776
Inhumas,-16.36,-49.5,Brazil,44058
Innsbruck,47.2804,11.41,Austria,155214
Inongo,-1.94,18.28,Congo (Kinshasa),40113
Inowrocław,52.7799,18.25,Poland,79007
Inver Grove Heights,44.8247,-93.0596,United States,35392
Invercargill,-46.4094,168.365,New Zealand,49200
Inverness,57.4671,-4.2333,United Kingdom,45158
Ioanina,39.6679,20.8509,Greece,86304
Iowa City,41.6559,-91.5304,United States,119091
Ipatinga,-19.4796,-42.52,Brazil,407894
Ipiales,0.8304,-77.65,Colombia,109618
Ipoh,4.6,101.065,Malaysia,673318
Ipswich,52.0703,1.17,United Kingdom,143767
Iquique,-20.25,-70.13,Chile,227499
Iquitos,-3.75,-73.25,Peru,458729
Iraklio,35.325,25.1305,Greece,137154
Irapuato,20.67,-101.5,Mexico,339554
Irati,-25.47,-50.66,Brazil,45830
Irbid,32.55,35.85,Jordan,650000
Irbil,36.179,44.0086,Iraq,926000
Irecê,-11.3,-41.87,Brazil,63626
Iringa,-7.7696,35.69,Tanzania,111820
Irkutsk,52.32,104.245,Russia,586695
Irvine,33.6772,-117.7738,United States,277453
Irving,32.8584,-96.9702,United States,240373
Iseyin,7.97,3.59,Nigeria,98071
Isfahan,32.7,51.7,Iran,1628000
Ishim,56.1502,69.4498,Russia,67762
Isiro,2.76,27.62,Congo (Kinshasa),157196
Iskandar,41.5507,69.6807,Uzbekistan,195633
İskenderun,36.5804,36.17,Turkey,297943
Iskitim,54.6509,83.2865,Russia,61827
Islamabad,33.7,73.1666,Pakistan,780000
Ismaïlia,30.5903,32.26,Egypt,656135
Isna,25.2904,32.5499,Egypt,100000
Isparta,37.77,30.53,Turkey,172334
Issaquah,47.5421,-122.0445,United States,37487
Istanbul,41.105,29.01,Turkey,10061000
Itá,-25.5096,-57.36,Paraguay,41090
Itaberaba,-12.5196,-40.3,Brazil,47301
Itabuna,-14.7896,-39.28,Brazil,221938
Itacoatiara,-3.14,-58.44,Brazil,51509
Itaituba,-4.2586,-55.925,Brazil,92308
Itajaí,-26.8996,-48.68,Brazil,327126
Itamaraju,-17.0396,-39.5299,Brazil,47628
Itanagar,27.1004,93.6166,India,44971
Itanhaem,-24.18,-46.8,Brazil,90385
Itapecuru Mirim,-3.4,-44.36,Brazil,34943
Itapetinga,-15.25,-40.25,Brazil,59721
Itapetininga,-23.59,-48.04,Brazil,126243
Itapeva,-23.9796,-48.88,Brazil,62957
Itapipoca,-3.4995,-39.58,Brazil,55784
Itaúna,-20.06,-44.57,Brazil,77400
Ithaca,42.4442,-76.5032,United States,55439
Itu,-23.26,-47.3,Brazil,320170
Ituiutaba,-18.97,-49.46,Brazil,85345
Itumbiara,-18.3996,-49.21,Brazil,79582
Ivano-Frankivsk,48.9348,24.7094,Ukraine,241239
Ivanovo,57.01,41.01,Russia,420839
Iwaki,37.0553,140.89,Japan,357309
Iwo,7.63,4.18,Nigeria,250443
Izaz,36.5888,37.0441,Syria,31534
Izhevsk,56.85,53.23,Russia,631038
Izmayil,45.3503,28.8374,Ukraine,83194
İzmir,38.4361,27.1518,Turkey,2587000
İzmit,40.776,29.9306,Turkey,466504
Jabalpur,23.1751,79.9551,India,1285000
Jaboatao,-8.11,-35.02,Brazil,702621
Jaboticabal,-21.25,-48.33,Brazil,69394
Jacareacanga,-6.2666,-57.65,Brazil,31661
Jacarezinho,-23.1599,-49.98,Brazil,35090
Jackson,35.6533,-88.8352,United States,73685
Jackson,42.2431,-84.4038,United States,87819
Jackson,32.3163,-90.2124,United States,338185
Jacksonville,30.3322,-81.6749,United States,1156291
Jacksonville,34.7323,-77.3962,United States,108872
Jacmel,18.235,-72.537,Haiti,33563
Jaén,-5.7096,-78.81,Peru,52493
Jaén,37.7704,-3.8,Spain,116400
Jaffna,9.675,80.005,Sri Lanka,250000
Jaguaquara,-13.53,-39.97,Brazil,41498
Jaipur,26.9211,75.81,India,2917000
Jakarta,-6.1744,106.8294,Indonesia,9125000
Jalal Abad,40.9429,73.0025,Kyrgyzstan,248899
Jalalabad,34.4415,70.4361,Afghanistan,597971
Jalapa,14.633,-89.989,Guatemala,45834
Jalingo,8.9004,11.36,Nigeria,117757
Jaltipan,17.94,-94.74,Mexico,66998
Jamaame,0.0722,42.7506,Somalia,185270
Jamalpur,24.9004,89.95,Bangladesh,167900
Jambi,-1.59,103.61,Indonesia,457090
Jamestown,42.0975,-79.2366,United States,41236
Jammu,32.7118,74.8467,India,791000
Jamshedpur,22.7875,86.1975,India,1300000
Janaúba,-15.7996,-43.31,Brazil,56572
Janesville,42.6855,-89.0136,United States,70518
Januária,-15.48,-44.37,Brazil,34811
Jaraguá do Sul,-26.48,-49.1,Brazil,130130
Jataí,-17.8796,-51.75,Brazil,76547
Jaú,-22.2896,-48.57,Brazil,119206
Jawhar,2.767,45.5166,Somalia,111308
Jayapura,-2.533,140.7,Indonesia,169341
Jeddah,21.5169,39.2192,Saudi Arabia,3012000
Jefferson City,38.5677,-92.1757,United States,58279
Jeffersonville,38.3377,-85.7026,United States,47383
Jeju,33.5101,126.5219,"Korea, South",408364
Jelgava,56.6527,23.7128,Latvia,67207
Jember,-8.1727,113.6873,Indonesia,298585
Jena,50.9304,11.58,Germany,104712
Jendouba,36.5,8.75,Tunisia,51408
Jeonju,35.8314,127.1404,"Korea, South",711424
Jequié,-13.85,-40.08,Brazil,135574
Jérémie,18.6339,-74.1184,Haiti,30917
Jersey City,40.7161,-74.0682,United States,270753
Jerusalem,31.7784,35.2066,Palestine,1029300
Jessore,23.1704,89.2,Bangladesh,243987
Jhang,31.2804,72.325,Pakistan,341210
Jhansi,25.453,78.5575,India,826494
Ji-Paraná,-10.8333,-61.967,Brazil,65016
Jiamusi,46.83,130.35,China,1020000
Jian,27.1304,115,China,520248
Jiangmen,22.5804,113.08,China,532419
Jianmen,30.6501,113.16,China,1708000
Jiaohe,43.7163,127.346,China,123018
Jiaojing,28.6804,121.45,China,471500
Jiaozuo,35.25,113.22,China,857000
Jiaxing,30.7704,120.75,China,988000
Jiayuguan,39.82,98.3,China,148279
Jieshou,33.2504,115.35,China,141993
Jiexiu,37.04,111.9,China,77178
Jihlava,49.4004,15.5833,Czechia,53921
Jijel,36.822,5.766,Algeria,148000
Jijiga,9.3504,42.79,Ethiopia,56821
Jilin,43.85,126.55,China,2396000
Jima,7.68,36.83,Ethiopia,128306
Jinan,36.675,116.995,China,2798000
Jinchang,38.4957,102.1739,China,144363
Jincheng,35.5004,112.83,China,760000
Jingdezhen,29.2704,117.18,China,457298
Jingmen,31.0304,112.1,China,400000
Jinhua,29.12,119.65,China,1092852
Jining,35.4004,116.55,China,1186000
Jining,41.03,113.08,China,281716
Jinja,0.4404,33.1999,Uganda,301619
Jinotega,13.091,-86,Nicaragua,51073
Jinshi,29.6321,111.8517,China,274000
Jinxi,40.7503,120.83,China,2426000
Jinzhou,41.1204,121.1,China,956000
Jipijapa,-1.3496,-80.58,Ecuador,35901
Jiujiang,29.73,115.98,China,545616
Jiutai,44.1447,125.8443,China,205399
Jixi,45.3,130.97,China,965000
Jizan,16.9066,42.5566,Saudi Arabia,105198
Jizzax,40.1004,67.83,Uzbekistan,235352
Joaçaba,-27.17,-51.5,Brazil,38876
João Pessoa,-7.1011,-34.8761,Brazil,956000
Jodhpur,26.2918,73.0168,India,995000
Joensuu,62.6,29.7666,Finland,53388
Johannesburg,-26.17,28.03,South Africa,3435000
Johns Creek,34.0333,-84.2027,United States,84350
Johnson City,36.3406,-82.3804,United States,126589
Johnstown,40.3258,-78.9194,United States,64615
Johor Bahru,1.48,103.73,Malaysia,875000
Joinville,-26.32,-48.8399,Brazil,988000
Joliet,41.5193,-88.1501,United States,148462
Joliette,46.0333,-73.4333,Canada,45361
Jonesboro,35.8212,-90.6795,United States,73788
Jönköping,57.7713,14.165,Sweden,89780
Joplin,37.0766,-94.5016,United States,86298
Jorhat,26.75,94.2167,India,69033
Jos,9.93,8.89,Nigeria,816824
Juanjuí,-7.1696,-76.74,Peru,37715
Juazeiro,-9.42,-40.5,Brazil,95132
Juazeiro do Norte,-7.21,-39.32,Brazil,225230
Juba,4.83,31.58,South Sudan,111975
Juchitan,16.43,-95.02,Mexico,67637
Juigalpa,12.11,-85.38,Nicaragua,54731
Juiz de Fora,-21.77,-43.375,Brazil,470193
Juliaca,-15.5,-70.14,Peru,245675
Jullundur,31.3349,75.569,India,855000
Junction City,39.0272,-96.8497,United States,38178
Jundiaí,-23.2,-46.88,Brazil,505548
Junín,-34.5846,-60.9589,Argentina,85007
Jupiter,26.9199,-80.1127,United States,64976
Jutiapa,14.29,-89.9,Guatemala,50681
Juticalpa,14.6704,-86.23,Honduras,37442
Jyväskylä,62.2603,25.75,Finland,98136
Kabale,-1.2496,29.98,Uganda,44600
Kabinda,-6.1296,24.48,Congo (Kinshasa),59004
Kabul,34.5167,69.1833,Afghanistan,3277000
Kabwe,-14.44,28.45,Zambia,188979
Kadoma,-18.33,29.9099,Zimbabwe,79174
Kadugli,11.01,29.7,Sudan,176931
Kaduna,10.52,7.44,Nigeria,1442000
Kaesong,37.964,126.5644,"Korea, North",338155
Kafr el Sheikh,31.109,30.936,Egypt,143970
Kafue,-15.78,28.18,Zambia,47554
Kaga Bandoro,6.9804,19.18,Central African Republic,56520
Kagoshima,31.586,130.5611,Japan,555352
Kahama,-3.8196,32.58,Tanzania,36014
Kahemba,-7.2829,19,Congo (Kinshasa),50000
Kahramanmaraş,37.61,36.945,Turkey,376045
Kaifeng,34.85,114.35,China,872000
Kaka,37.3503,59.6,Turkmenistan,38381
Kakamega,0.2904,34.73,Kenya,63426
Kakata,6.526,-10.349,Liberia,33945
Kakinada,16.9675,82.2375,India,292923
Kalamata,37.0389,22.1142,Greece,71823
Kalamazoo,42.2749,-85.5881,United States,214083
Kalasin,16.428,103.509,Thailand,55102
Kalemie,-5.9333,29.2,Congo (Kinshasa),206257
Kalgoorlie,-30.7354,121.46,Australia,36852
Kaliningrad,54.7,20.4973,Russia,434954
Kalispell,48.2155,-114.3262,United States,37024
Kalmar,56.667,16.3666,Sweden,35024
Kaluga,54.5204,36.27,Russia,338978
Kalyan,19.2502,73.1602,India,1576614
Kambove,-10.8696,26.6,Congo (Kinshasa),36702
Kamenna Obi,53.7936,81.3388,Russia,44564
Kamensk Shakhtinskiy,48.3318,40.2518,Russia,75814
Kamensk Uralskiy,56.4205,61.935,Russia,182500
Kamina,-8.73,25.01,Congo (Kinshasa),128803
Kamloops,50.6667,-120.3333,Canada,68714
Kampala,0.3167,32.5833,Uganda,1420000
Kampene,-3.5995,26.67,Congo (Kinshasa),37034
Kamphaeng Phet,16.473,99.529,Thailand,58787
Kampong Cham,12.0004,105.45,Cambodia,83233
Kampong Spoe,11.452,104.519,Cambodia,33231
Kampot,10.6171,104.1833,Cambodia,50105
Kamsar,10.6854,-14.605,Guinea,34973
Kamyanets-Podilskyy,48.6843,26.5809,Ukraine,114658
Kamyshin,50.0804,45.4,Russia,128626
Kananga,-5.89,22.4,Congo (Kinshasa),765000
Kanash,55.5091,47.4687,Russia,49886
Kanazawa,36.56,136.64,Japan,551249
Kanchanaburi,14.0174,99.522,Thailand,63699
Kanchipuram,12.8337,79.7167,India,155029
Kandahar,31.61,65.6949,Afghanistan,715542
Kandalaksha,67.1643,32.4144,Russia,106798
Kandi,11.1304,2.94,Benin,109701
Kandy,7.28,80.67,Sri Lanka,111701
Kangar,6.433,100.19,Malaysia,63869
Kanggye,40.9732,126.6032,"Korea, North",299514
Kaniama,-7.5696,24.17,Congo (Kinshasa),36481
Kankakee,41.102,-87.8643,United States,78001
Kankan,10.39,-9.31,Guinea,114009
Kannapolis,35.4764,-80.6404,United States,48806
Kano,12,8.52,Nigeria,3140000
Kanoya,31.3833,130.85,Japan,82335
Kanpur,26.46,80.32,India,3162000
Kansas City,39.1239,-94.5541,United States,1615621
Kansas City,39.1234,-94.7443,United States,152938
Kansk,56.19,95.71,Russia,101502
Kanye,-24.9696,25.34,Botswana,46831
Kaohsiung,22.6333,120.2666,Taiwan,2769072
Kaolack,14.15,-16.1,Senegal,277812
Kapan,39.2015,46.415,Azerbaijan,42288
Kapiri Mposhi,-13.9696,28.66,Zambia,37942
Kaposvár,46.367,17.8,Hungary,108528
Kara Balta,42.8306,73.8857,Kyrgyzstan,74133
Karabük,41.2,32.6,Turkey,128564
Karachi,24.87,66.99,Pakistan,12130000
Karaj,35.8004,50.97,Iran,1423000
Karakol,42.492,78.3818,Kyrgyzstan,70171
